{
  "https://iipmap.com/khu-cong-nghiep-ngu-phuc-giai-doan-i-hai-phong": {
    "match_name": "Haiphong, Vietnam",
    "confidence": 0.444444,
    "lng": 106.674959,
    "lat": 20.858864,
    "query": "KHU CÔNG NGHIỆP NGŨ PHÚC - GIAI ĐOẠN I - HẢI PHÒNG, xã Nghi Dương, thành phố Hải Phòng, Vietnam"
  },
  "https://iipmap.com/khu-cong-nghiep-tang-loong-lao-cai": {
    "match_name": "Bảo Thắng, Lào Cai, Vietnam",
    "confidence": 0.477329,
    "lng": 104.187355,
    "lat": 22.319248,
    "query": "KHU CÔNG NGHIỆP TẰNG LOỎNG - LÀO CAI, xã Phú Nhuận và thị trấn Tằng Loỏng, huyện Bảo Thắng, tỉnh"
  },
  "https://iipmap.com/cum-cong-nghiep-quan-lat-quang-ngai": {
    "match_name": "Quảng Ngãi, Quảng Ngãi, Vietnam",
    "confidence": 0.575397,
    "lng": 108.80173,
    "lat": 15.122847,
    "query": "CỤM CÔNG NGHIỆP QUÁN LÁT - QUẢNG NGÃI, xã Mỏ Cày, tỉnh Quảng Ngãi, Vietnam"
  },
  "https://iipmap.com/khu-cong-nghiep-ha-noi-dai-tu-ha-noi": {
    "match_name": "Hà Tiên, Kiên Giang, Vietnam",
    "confidence": 0.351852,
    "lng": 104.48751,
    "lat": 10.382317,
    "query": "KHU CÔNG NGHIỆP HÀ NỘI - ĐÀI TƯ - HÀ NỘI, Phường Phúc Lợi, quận Long Biên, thành phố Hà"
  },
  "https://iipmap.com/cum-cong-nghiep-nam-thai-ninh-binh": {
    "match_name": "Ninh Bình, Ninh Bình, Vietnam",
    "confidence": 0.547386,
    "lng": 105.97167,
    "lat": 20.257044,
    "query": "CỤM CÔNG NGHIỆP NAM THÁI - NINH BÌNH, Xã Nam Thái, huyện Nam Trực, tỉnh Ninh Bình, Vietnam"
  },
  "https://iipmap.com/khu-cong-nghiep-dong-van-iv-ninh-binh": {
    "match_name": "Ninh Bình, Ninh Bình, Vietnam",
    "confidence": 0.564815,
    "lng": 105.97167,
    "lat": 20.257044,
    "query": "KHU CÔNG NGHIỆP ĐỒNG VĂN IV - NINH BÌNH, Huyện Kim Bảng, tỉnh Ninh Bình, Vietnam"
  },
  "https://iipmap.com/cum-cong-nghiep-khanh-hai-ii-ninh-binh": {
    "match_name": "Yên Khánh, Ninh Bình, Vietnam",
    "confidence": 0.564815,
    "lng": 106.059944,
    "lat": 20.181799,
    "query": "CỤM CÔNG NGHIỆP KHÁNH HẢI II - NINH BÌNH, xã Khánh Lợi, huyện Yên Khánh, tỉnh Ninh Bình, Vietnam"
  },
  "https://iipmap.com/khu-cong-nghiep-lac-thinh-phu-tho": {
    "match_name": "Phú Thọ, Phú Thọ, Vietnam",
    "confidence": 0.575397,
    "lng": 105.222466,
    "lat": 21.400158,
    "query": "KHU CÔNG NGHIỆP LẠC THỊNH - PHÚ THỌ, xã Yên Thủy, tỉnh Phú Thọ, Vietnam"
  },
  "https://iipmap.com/khu-cong-nghiep-dong-nam-a-long-an": {
    "match_name": "Cần Giuộc, Long An, Vietnam",
    "confidence": 0.564815,
    "lng": 106.66952,
    "lat": 10.602092,
    "query": "KHU CÔNG NGHIỆP ĐÔNG NAM Á - LONG AN, Xã Tân Tập, huyện Cần Giuộc, tỉnh Long An, Vietnam"
  },
  "https://iipmap.com/cum-cong-nghiep-gio-linh-quang-tri": {
    "match_name": "Gio Linh, Quảng Trị, Vietnam",
    "confidence": 0.564815,
    "lng": 107.073944,
    "lat": 16.934498,
    "query": "CỤM CÔNG NGHIỆP GIO LINH - QUẢNG TRỊ, Thị trấn Gio Linh, huyện Gio Linh, tỉnh Quảng Trị, Vietnam"
  },
  "https://iipmap.com/cum-cong-nghiep-cam-giang-thai-nguyen": {
    "match_name": "Thái Nguyên, Thái Nguyên, Vietnam",
    "confidence": 0.547386,
    "lng": 105.834206,
    "lat": 21.59228,
    "query": "CỤM CÔNG NGHIỆP CẨM GIÀNG - THÁI NGUYÊN, Xã Cẩm Giàng, huyện Bạch Thông, tỉnh Thái Nguyên, Vietnam"
  },
  "https://iipmap.com/cum-cong-nghiep-hung-yen-nghe-an": {
    "match_name": "Hưng Nguyên, Nghệ An, Vietnam",
    "confidence": 0.564815,
    "lng": 105.62994,
    "lat": 18.671091,
    "query": "CỤM CÔNG NGHIỆP HƯNG YÊN - NGHỆ AN, xã Hưng Yên Nam, huyện Hưng Nguyên, tỉnh Nghệ An, Vietnam"
  },
  "https://iipmap.com/khu-cong-nghiep-so-01-giai-doan-1-hung-yen": {
    "match_name": "Yên Mỹ, Hưng Yên, Vietnam",
    "confidence": 0.459136,
    "lng": 106.03264,
    "lat": 20.880495,
    "query": "KHU CÔNG NGHIỆP SỐ 01 - GIAI ĐOẠN 1 - HƯNG YÊN, xã Xuân Trúc, xã Yên Mỹ, tỉnh Hưng"
  },
  "https://iipmap.com/cum-cong-nghiep-thang-cuong-ninh-binh": {
    "match_name": "Ninh Bình, Ninh Bình, Vietnam",
    "confidence": 0.547386,
    "lng": 105.97167,
    "lat": 20.257044,
    "query": "CỤM CÔNG NGHIỆP THẮNG CƯỜNG - NINH BÌNH, xã Yên Cường, huyện Ý Yên, tỉnh Ninh Bình, Vietnam"
  },
  "https://iipmap.com/khu-cong-nghiep-dong-xoai-iii-binh-phuoc": {
    "match_name": "Đồng Xoài, Bình Phước, Vietnam",
    "confidence": 0.533626,
    "lng": 106.894325,
    "lat": 11.531429,
    "query": "KHU CÔNG NGHIỆP ĐỒNG XOÀI III - BÌNH PHƯỚC, Xã Tiến Hưng, thị xã Đồng Xoài, tỉnh Bình Phước, Vietnam"
  },
  "https://iipmap.com/khu-cong-nghiep-my-phuoc-3-binh-duong": {
    "match_name": "Bến Cát, Bình Dương, Vietnam",
    "confidence": 0.384737,
    "lng": 106.60737,
    "lat": 11.132001,
    "query": "KHU CÔNG NGHIỆP MỸ PHƯỚC 3 - BÌNH DƯƠNG, phường Thới Hòa và phường Chánh Phú Hòa, thị xã Bến"
  },
  "https://iipmap.com/khu-cong-nghiep-yen-binh-thai-nguyen": {
    "match_name": "Thái Nguyên, Thái Nguyên, Vietnam",
    "confidence": 0.564815,
    "lng": 105.834206,
    "lat": 21.59228,
    "query": "KHU CÔNG NGHIỆP YÊN BÌNH - THÁI NGUYÊN, Thị xã Phổ Yên, tỉnh Thái Nguyên, Vietnam"
  },
  "https://iipmap.com/khu-cong-nghiep-tan-phuoc-i-tien-giang": {
    "match_name": "Tân Phước, Tiền Giang, Vietnam",
    "confidence": 0.594444,
    "lng": 106.19437,
    "lat": 10.473995,
    "query": "KHU CÔNG NGHIỆP TÂN PHƯỚC I - TIỀN GIANG, Huyện Tân Phước, tỉnh Tiền Giang, Vietnam"
  },
  "https://iipmap.com/cum-cong-nghiep-chinh-nghia-hung-yen": {
    "match_name": "Kim Động, Hưng Yên, Vietnam",
    "confidence": 0.564815,
    "lng": 106.058784,
    "lat": 20.739979,
    "query": "CỤM CÔNG NGHIỆP CHÍNH NGHĨA - HƯNG YÊN, Huyện Kim Động và huyện Ân Thi, tỉnh Hưng Yên, Vietnam"
  },
  "https://iipmap.com/khu-cong-nghiep-minh-hung-sikico-binh-phuoc": {
    "match_name": "Hớn Quản, Bình Phước, Vietnam",
    "confidence": 0.594444,
    "lng": 106.61649,
    "lat": 11.559454,
    "query": "KHU CÔNG NGHIỆP MINH HƯNG SIKICO - BÌNH PHƯỚC, Huyện Hớn Quản, tỉnh Bình Phước, Vietnam"
  },
  "https://iipmap.com/khu-cong-nghiep-yen-son-bac-lung-bac-ninh": {
    "match_name": "Bắc Ninh, Bắc Ninh, Vietnam",
    "confidence": 0.32716,
    "lng": 106.06527,
    "lat": 21.180523,
    "query": "KHU CÔNG NGHIỆP YÊN SƠN - BẮC LŨNG - BẮC NINH, Xã Yên Sơn và xã Bắc Lũng, huyện Lục"
  },
  "https://iipmap.com/khu-cong-nghiep-van-thuong-ba-ria-vung-tau": {
    "match_name": "Phú Mỹ, Bà Rịa-Vũng Tàu, Vietnam",
    "confidence": 0.567901,
    "lng": 107.05837,
    "lat": 10.588168,
    "query": "KHU CÔNG NGHIỆP VẠN THƯƠNG - BÀ RỊA VŨNG TÀU, Thị xã Phú Mỹ, tỉnh Bà Rịa - Vũng Tàu,"
  },
  "https://iipmap.com/khu-cong-nghiep-tran-duong-hoa-binh-hai-phong": {
    "match_name": "Haiphong, Vietnam",
    "confidence": 0.444444,
    "lng": 106.674959,
    "lat": 20.858864,
    "query": "KHU CÔNG NGHIỆP TRẤN DƯƠNG - HÒA BÌNH - HẢI PHÒNG, xã Nguyễn Bỉnh Khiêm, thành phố Hải Phòng, Vietnam"
  },
  "https://iipmap.com/khu-cong-nghiep-tan-ky-nghe-an": {
    "match_name": "Tân Kỳ, Nghệ An, Vietnam",
    "confidence": 0.573529,
    "lng": 105.269485,
    "lat": 19.050722,
    "query": "KHU CÔNG NGHIỆP TÂN KỲ - NGHỆ AN, xã Nghĩa Thái, huyện Tân Kỳ, tỉnh Nghệ An, Vietnam"
  },
  "https://iipmap.com/cum-cong-nghiep-con-nhat-thai-binh": {
    "match_name": "Kiến Xương, Thái Bình, Vietnam",
    "confidence": 0.573529,
    "lng": 106.43929,
    "lat": 20.38877,
    "query": "CỤM CÔNG NGHIỆP CỒN NHẤT - THÁI BÌNH, Xã Nam Bình, huyện Kiến Xương, tỉnh Thái Bình, Vietnam"
  },
  "https://iipmap.com/khu-cong-nghiep-yen-lu-bac-ninh": {
    "match_name": "Bắc Ninh, Bắc Ninh, Vietnam",
    "confidence": 0.547386,
    "lng": 106.06527,
    "lat": 21.180523,
    "query": "KHU CÔNG NGHIỆP YÊN LƯ - BẮC NINH, Xã Yên Lư, huyện Yên Dũng, tỉnh Bắc Ninh, Vietnam"
  },
  "https://iipmap.com/khu-cong-nghiep-yen-my-hung-yen": {
    "match_name": "Yên Mỹ, Hưng Yên, Vietnam",
    "confidence": 0.607143,
    "lng": 106.03264,
    "lat": 20.880495,
    "query": "KHU CÔNG NGHIỆP YÊN MỸ - HƯNG YÊN, Huyện Yên Mỹ, tỉnh Hưng Yên, Vietnam"
  },
  "https://iipmap.com/khu-cong-nghiep-khanh-cu-ninh-binh": {
    "match_name": "Yên Khánh, Ninh Bình, Vietnam",
    "confidence": 0.573529,
    "lng": 106.059944,
    "lat": 20.181799,
    "query": "KHU CÔNG NGHIỆP KHÁNH CƯ - NINH BÌNH, Xã Khánh Cư, huyện Yên Khánh, tỉnh Ninh Bình, Vietnam"
  },
  "https://iipmap.com/khu-cong-nghiep-bao-minh-mo-rong-ninh-binh": {
    "match_name": "Ninh Bình, Ninh Bình, Vietnam",
    "confidence": 0.324561,
    "lng": 105.97167,
    "lat": 20.257044,
    "query": "KHU CÔNG NGHIỆP BẢO MINH MỞ RỘNG - NINH BÌNH, Xã Liên Minh và xã Kim Thái, huyện Vụ Bản,"
  },
  "https://iipmap.com/cum-cong-nghiep-xuan-tien-2-ninh-binh": {
    "match_name": "Ninh Bình, Ninh Bình, Vietnam",
    "confidence": 0.540123,
    "lng": 105.97167,
    "lat": 20.257044,
    "query": "CỤM CÔNG NGHIỆP XUÂN TIẾN 2 - NINH BÌNH, xã Xuân Tiến, huyện Xuân Trường, tỉnh Ninh Bình, Vietnam"
  },
  "https://iipmap.com/khu-cong-nghiep-bac-cam-ranh-khanh-hoa": {
    "match_name": "Cam Lâm, Khánh Hòa, Vietnam",
    "confidence": 0.430546,
    "lng": 109.1608,
    "lat": 12.055975,
    "query": "KHU CÔNG NGHIỆP BẮC CAM RANH - KHÁNH HÒA, Phường Cam Phúc Bắc và Cam Phúc Nam, thành phố Cam"
  },
  "https://iipmap.com/cum-cong-nghiep-go-da-trang-binh-dinh": {
    "match_name": "An Nhơn, Bình Định, Vietnam",
    "confidence": 0.580409,
    "lng": 109.113304,
    "lat": 13.886543,
    "query": "CỤM CÔNG NGHIỆP GÒ ĐÁ TRẮNG - BÌNH ĐỊNH, Phường Đập Đá, thị xã An Nhơn, tỉnh Bình Định, Vietnam"
  },
  "https://iipmap.com/cum-cong-nghiep-tan-binh-binh-thuan": {
    "match_name": "La Gi, Bình Thuận, Vietnam",
    "confidence": 0.514641,
    "lng": 107.77415,
    "lat": 10.659013,
    "query": "CỤM CÔNG NGHIỆP TÂN BÌNH - BÌNH THUẬN, Xã Tân Bình, thị xã Lagi, tỉnh Bình Thuận, Vietnam"
  },
  "https://iipmap.com/khu-cong-nghiep-phong-dien-thua-thien-hue": {
    "match_name": "Phong Điền, Huế, Vietnam",
    "confidence": 0.611111,
    "lng": 107.36483,
    "lat": 16.582184,
    "query": "KHU CÔNG NGHIỆP PHONG ĐIỀN - THỪA THIÊN HUẾ, Huyện Phong Điền, tỉnh Thừa Thiên Huế, Vietnam"
  },
  "https://iipmap.com/cum-cong-nghiep-tan-hoi-tay-ninh": {
    "match_name": "Tây Ninh, Tây Ninh, Vietnam",
    "confidence": 0.575397,
    "lng": 106.09091,
    "lat": 11.316238,
    "query": "CỤM CÔNG NGHIỆP TÂN HỘI – TÂY NINH, xã Tân Hội, tỉnh Tây Ninh, Vietnam"
  },
  "https://iipmap.com/cum-cong-nghiep-lang-nghe-xa-dong-van-phu-tho": {
    "match_name": "Phú Thọ, Phú Thọ, Vietnam",
    "confidence": 0.547386,
    "lng": 105.222466,
    "lat": 21.400158,
    "query": "CỤM CÔNG NGHIỆP LÀNG NGHỀ XÃ ĐỒNG VĂN- PHÚ THỌ, xã Tề Lỗ, tỉnh Phú Thọ, Vietnam"
  },
  "https://iipmap.com/khu-cong-nghiep-binh-hoa-nam-1-tay-ninh": {
    "match_name": "Tây Ninh, Tây Ninh, Vietnam",
    "confidence": 0.555556,
    "lng": 106.09091,
    "lat": 11.316238,
    "query": "KHU CÔNG NGHIỆP BÌNH HÒA NAM 1 - TÂY NINH, xã Đức Huệ, tỉnh Tây Ninh, Vietnam"
  },
  "https://iipmap.com/khu-cong-nghiep-dong-pho-moi-lao-cai": {
    "match_name": "Lào Cai, Lào Cai, Vietnam",
    "confidence": 0.580409,
    "lng": 103.96797,
    "lat": 22.496237,
    "query": "KHU CÔNG NGHIỆP ĐÔNG PHỐ MỚI - LÀO CAI, xã Vạn Hòa, thành phố Lào Cai, tỉnh Lào Cai, Vietnam"
  },
  "https://iipmap.com/khu-cong-nghiep-tra-da-gia-lai": {
    "match_name": "Pleiku, Gia Lai, Vietnam",
    "confidence": 0.527778,
    "lng": 108.01502,
    "lat": 13.971903,
    "query": "KHU CÔNG NGHIỆP TRÀ ĐA – GIA LAI, phường Pleiku, xã Biển Hồ, tỉnh Gia Lai, Vietnam"
  },
  "https://iipmap.com/khu-cong-nghiep-va-khu-phi-thue-quan-xuan-cau-hai-phong": {
    "match_name": "Haiphong, Vietnam",
    "confidence": 0.324561,
    "lng": 106.674959,
    "lat": 20.858864,
    "query": "KHU CÔNG NGHIỆP VÀ KHU PHI THUẾ QUAN XUÂN CẦU - HẢI PHÒNG, Cảng quốc tế Lạch Huyện, huyện Cát"
  },
  "https://iipmap.com/khu-cong-nghiep-que-vo-mo-rong-2-bac-ninh": {
    "match_name": "Quế Võ, Bắc Ninh, Vietnam",
    "confidence": 0.463938,
    "lng": 106.14906,
    "lat": 21.15372,
    "query": "KHU CÔNG NGHIỆP QUẾ VÕ MỞ RỘNG 2 - BẮC NINH, xã Yên Giả và phường Phượng Mao, thị xã"
  },
  "https://iipmap.com/khu-cong-nghiep-dau-giay-dong-nai": {},
  "https://iipmap.com/cum-cong-nghiep-lan-son-2-bac-ninh": {
    "match_name": "Bắc Ninh, Bắc Ninh, Vietnam",
    "confidence": 0.564815,
    "lng": 106.06527,
    "lat": 21.180523,
    "query": "CỤM CÔNG NGHIỆP LAN SƠN 2 – BẮC NINH, xã Bắc Lũng, tỉnh Bắc Ninh, Vietnam"
  },
  "https://iipmap.com/cum-cong-nghiep-phuong-trung-ha-noi": {
    "match_name": "Hanoi, Vietnam",
    "confidence": 0.444444,
    "lng": 105.854444,
    "lat": 21.02945,
    "query": "CỤM CÔNG NGHIỆP PHƯƠNG TRUNG - HÀ NỘI, Xã Phương Trung, huyện Thanh Oai, thành phố Hà Nội, Vietnam"
  },
  "https://iipmap.com/khu-cong-nghiep-thach-loc-kien-giang": {
    "match_name": "Châu Thành, Tây Ninh, Vietnam",
    "confidence": 0.68254,
    "lng": 106.03097,
    "lat": 11.312212,
    "query": "KHU CÔNG NGHIỆP THẠCH LỘC – KIÊN GIANG, Huyện Châu Thành, tỉnh Kiên Giang, Vietnam"
  },
  "https://iipmap.com/cum-cong-nghiep-hong-duong-ha-noi": {
    "match_name": "Hanoi, Vietnam",
    "confidence": 0.459259,
    "lng": 105.854444,
    "lat": 21.02945,
    "query": "CỤM CÔNG NGHIỆP HỒNG DƯƠNG - HÀ NỘI, Xã Dân Hòa, thành phố Hà Nội, Vietnam"
  },
  "https://iipmap.com/khu-cong-nghiep-vsip-hai-phong-hai-phong": {
    "match_name": "Haiphong, Vietnam",
    "confidence": 0.440546,
    "lng": 106.674959,
    "lat": 20.858864,
    "query": "KHU CÔNG NGHIỆP VSIP HẢI PHÒNG - HẢI PHÒNG, xã Tân Dương, huyện Thủy Nguyên, thành phố Hải Phòng, Vietnam"
  },
  "https://iipmap.com/cum-cong-nghiep-cam-thinh-quang-ninh": {
    "match_name": "Quảng Ninh, Quảng Bình, Vietnam",
    "confidence": 0.465608,
    "lng": 106.63829,
    "lat": 17.402655,
    "query": "CỤM CÔNG NGHIỆP CẨM THỊNH - QUẢNG NINH, phường Cửa Ông, tỉnh Quảng Ninh, Vietnam"
  },
  "https://iipmap.com/khu-cong-nghiep-cai-lan-quang-ninh": {
    "match_name": "Hạ Long, Quảng Ninh, Vietnam",
    "confidence": 0.500721,
    "lng": 107.079765,
    "lat": 20.952133,
    "query": "KHU CÔNG NGHIỆP CÁI LÂN - QUẢNG NINH, phường Giếng Đáy và phường Bãi Cháy, thành phố Hạ Long, tỉnh"
  },
  "https://iipmap.com/cum-cong-nghiep-giao-hai-ninh-binh": {
    "match_name": "Ninh Bình, Ninh Bình, Vietnam",
    "confidence": 0.547386,
    "lng": 105.97167,
    "lat": 20.257044,
    "query": "CỤM CÔNG NGHIỆP GIAO HẢI - NINH BÌNH, xã Giao Hải, huyện Giao Thủy, tỉnh Ninh Bình, Vietnam"
  },
  "https://iipmap.com/khu-cong-nghiep-kim-thanh-2-hai-phong": {
    "match_name": "Tam Kỳ, Quảng Nam, Vietnam",
    "confidence": 0.324561,
    "lng": 108.47396,
    "lat": 15.565762,
    "query": "KHU CÔNG NGHIỆP KIM THÀNH 2 - HẢI PHÒNG, xã Đại Đức và xã Tam Kỳ, huyện Kim Thành, thành"
  },
  "https://iipmap.com/cum-cong-nghiep-dong-soc-phu-tho": {
    "match_name": "Phú Thọ, Phú Thọ, Vietnam",
    "confidence": 0.547386,
    "lng": 105.222466,
    "lat": 21.400158,
    "query": "CỤM CÔNG NGHIỆP ĐỒNG SÓC - PHÚ THỌ, xã Vĩnh Tường, xã Vạn Xuân, tỉnh Phú Thọ, Vietnam"
  },
  "https://iipmap.com/cum-cong-nghiep-tu-phuong-tay-ninh": {
    "match_name": "Tây Ninh, Tây Ninh, Vietnam",
    "confidence": 0.575397,
    "lng": 106.09091,
    "lat": 11.316238,
    "query": "CỤM CÔNG NGHIỆP TÚ PHƯƠNG - TÂY NINH, phường Khánh Hậu, tỉnh Tây Ninh, Vietnam"
  },
  "https://iipmap.com/cum-cong-nghiep-giao-thien-ninh-binh": {
    "match_name": "Ninh Bình, Ninh Bình, Vietnam",
    "confidence": 0.547386,
    "lng": 105.97167,
    "lat": 20.257044,
    "query": "CỤM CÔNG NGHIỆP GIAO THIỆN - NINH BÌNH, Xã Giao Thiện, huyện Giao Thủy, tỉnh Ninh Bình, Vietnam"
  },
  "https://iipmap.com/cum-cong-nghiep-cong-hoa-hai-phong": {
    "match_name": "Haiphong, Vietnam",
    "confidence": 0.453704,
    "lng": 106.674959,
    "lat": 20.858864,
    "query": "CỤM CÔNG NGHIỆP CỘNG HÒA - HẢI PHÒNG, Xã Kim Thành 2, thành phố Hải Phòng, Vietnam"
  },
  "https://iipmap.com/cum-cong-nghiep-hoa-lien-da-nang": {
    "match_name": "Hoà An, Cao Bằng, Vietnam",
    "confidence": 0.564198,
    "lng": 106.15273,
    "lat": 22.736755,
    "query": "CỤM CÔNG NGHIỆP HÒA LIÊN - ĐÀ NẴNG, Xã Hòa Liên, huyện Hòa Vang, thành phố Đà Nẵng, Vietnam"
  },
  "https://iipmap.com/khu-cong-nghiep-chau-son-ninh-binh": {
    "match_name": "Ninh Bình, Ninh Bình, Vietnam",
    "confidence": 0.575397,
    "lng": 105.97167,
    "lat": 20.257044,
    "query": "KHU CÔNG NGHIỆP CHÂU SƠN - NINH BÌNH, phường Châu Sơn, tỉnh Ninh Bình, Vietnam"
  },
  "https://iipmap.com/cum-cong-nghiep-trang-an-quang-ninh": {
    "match_name": "Đông Triều, Quảng Ninh, Vietnam",
    "confidence": 0.589506,
    "lng": 106.51367,
    "lat": 21.082224,
    "query": "CỤM CÔNG NGHIỆP TRÀNG AN - QUẢNG NINH, phường Tràng An, thị xã Đông Triều, tỉnh Quảng Ninh, Vietnam"
  },
  "https://iipmap.com/khu-cong-nghiep-tam-phuoc-dong-nai": {},
  "https://iipmap.com/khu-cong-nghiep-dai-an-hai-phong": {
    "match_name": "Haiphong, Vietnam",
    "confidence": 0.459259,
    "lng": 106.674959,
    "lat": 20.858864,
    "query": "KHU CÔNG NGHIỆP ĐẠI AN - HẢI PHÒNG, phường Tứ Minh, thành phố Hải Phòng, Vietnam"
  },
  "https://iipmap.com/khu-cong-nghiep-go-dau-dong-nai": {
    "match_name": "Gò Dầu, Tây Ninh, Vietnam",
    "confidence": 0.373016,
    "lng": 106.26567,
    "lat": 11.083269,
    "query": "KHU CÔNG NGHIỆP GÒ DẦU - ĐỒNG NAI, xã Phước Thái, tỉnh Đồng Nai, Vietnam"
  },
  "https://iipmap.com/cum-cong-nghiep-na-duong-3-lang-son": {
    "match_name": "Lộc Bình, Lạng Sơn, Vietnam",
    "confidence": 0.477329,
    "lng": 106.92246,
    "lat": 21.75968,
    "query": "CỤM CÔNG NGHIỆP NA DƯƠNG 3 - LẠNG SƠN, xã Đông Quan và thị trấn Na Dương, huyện Lộc Bình,"
  },
  "https://iipmap.com/cum-cong-nghiep-thanh-da-ha-noi": {
    "match_name": "Hanoi, Vietnam",
    "confidence": 0.459259,
    "lng": 105.854444,
    "lat": 21.02945,
    "query": "CỤM CÔNG NGHIỆP THANH ĐA - HÀ NỘI, xã Hát Môn, thành phố Hà Nội, Vietnam"
  },
  "https://iipmap.com/khu-cong-nghiep-luong-son-phu-tho": {
    "match_name": "Phú Thọ, Phú Thọ, Vietnam",
    "confidence": 0.575397,
    "lng": 105.222466,
    "lat": 21.400158,
    "query": "KHU CÔNG NGHIỆP LƯƠNG SƠN - PHÚ THỌ, xã Lương Sơn, tỉnh Phú Thọ, Vietnam"
  },
  "https://iipmap.com/khu-cong-nghiep-bach-dang-quang-ninh": {
    "match_name": "Quảng Yên, Quảng Ninh, Vietnam",
    "confidence": 0.589506,
    "lng": 106.79858,
    "lat": 20.938734,
    "query": "KHU CÔNG NGHIỆP BẠCH ĐẰNG - QUẢNG NINH, xã Liên Vị, thị xã Quảng Yên, tỉnh Quảng Ninh, Vietnam"
  },
  "https://iipmap.com/khu-cong-nghiep-cau-quan-vinh-long": {
    "match_name": "Vĩnh Long, Vĩnh Long, Vietnam",
    "confidence": 0.575397,
    "lng": 105.97443,
    "lat": 10.249591,
    "query": "KHU CÔNG NGHIỆP CẦU QUAN - VĨNH LONG, xã Tân Hòa, tỉnh Vĩnh Long, Vietnam"
  },
  "https://iipmap.com/khu-cong-nghiep-tra-noc-ii-can-tho": {
    "match_name": "Cần Thơ, Vietnam",
    "confidence": 0.453704,
    "lng": 105.787522,
    "lat": 10.036422,
    "query": "KHU CÔNG NGHIỆP TRÀ NÓC II - CẦN THƠ, phường Phước Thới, thành phố Cần Thơ, Vietnam"
  },
  "https://iipmap.com/khu-cong-nghiep-my-tho-tien-giang": {
    "match_name": "Mỹ Tho, Tiền Giang, Vietnam",
    "confidence": 0.547386,
    "lng": 106.36179,
    "lat": 10.358255,
    "query": "KHU CÔNG NGHIỆP MỸ THO - TIỀN GIANG, xã Bình Đức, huyện Châu Thành, tỉnh Tiền Giang, Vietnam"
  },
  "https://iipmap.com/cum-cong-nghiep-hop-hung-ninh-binh": {
    "match_name": "Ninh Bình, Ninh Bình, Vietnam",
    "confidence": 0.547386,
    "lng": 105.97167,
    "lat": 20.257044,
    "query": "CỤM CÔNG NGHIỆP HỢP HƯNG - NINH BÌNH, xã Hợp Hưng, huyện Vụ Bản, tỉnh Ninh Bình, Vietnam"
  },
  "https://iipmap.com/cum-cong-nghiep-lien-hoa-thanh-hoa": {
    "match_name": "Hậu Lộc, Thanh Hóa, Vietnam",
    "confidence": 0.477329,
    "lng": 105.88367,
    "lat": 19.913815,
    "query": "CỤM CÔNG NGHIỆP LIÊN HOA - THANH HÓA, Xã Liên Lộc và xã Hoa Lộc, huyện Hậu Lộc, tỉnh Thanh"
  },
  "https://iipmap.com/khu-cong-nghiep-cau-nghin-thai-binh": {
    "match_name": "Quỳnh Phụ, Thái Bình, Vietnam",
    "confidence": 0.477329,
    "lng": 106.32499,
    "lat": 20.656372,
    "query": "KHU CÔNG NGHIỆP CẦU NGHÌN - THÁI BÌNH, Thị trấn An Bài và xã An Thanh, huyện Quỳnh Phụ, tỉnh"
  },
  "https://iipmap.com/khu-cong-nghiep-nam-sach-hai-phong": {
    "match_name": "Haiphong, Vietnam",
    "confidence": 0.459259,
    "lng": 106.674959,
    "lat": 20.858864,
    "query": "KHU CÔNG NGHIỆP NAM SÁCH - HẢI PHÒNG, phường Ái Quốc, thành phố Hải Phòng, Vietnam"
  },
  "https://iipmap.com/cum-cong-nghiep-tien-tien-phu-tho": {
    "match_name": "Phú Thọ, Phú Thọ, Vietnam",
    "confidence": 0.575397,
    "lng": 105.222466,
    "lat": 21.400158,
    "query": "CỤM CÔNG NGHIỆP TIÊN TIẾN - PHÚ THỌ, xã Thịnh Minh, tỉnh Phú Thọ, Vietnam"
  },
  "https://iipmap.com/khu-cong-nghiep-dong-phuc-bac-ninh": {
    "match_name": "Bắc Ninh, Bắc Ninh, Vietnam",
    "confidence": 0.547386,
    "lng": 106.06527,
    "lat": 21.180523,
    "query": "KHU CÔNG NGHIỆP ĐỒNG PHÚC - BẮC NINH, xã Tư Mại, huyện Yên Dũng, tỉnh Bắc Ninh, Vietnam"
  },
  "https://iipmap.com/cum-cong-nghiep-dong-tam-phu-tho": {
    "match_name": "Phú Thọ, Phú Thọ, Vietnam",
    "confidence": 0.575397,
    "lng": 105.222466,
    "lat": 21.400158,
    "query": "CỤM CÔNG NGHIỆP ĐỒNG TÂM - PHÚ THỌ, xã Lạc Thủy, tỉnh Phú Thọ, Vietnam"
  },
  "https://iipmap.com/khu-cong-nghiep-my-phuoc-4-binh-duong": {
    "match_name": "Bến Cát, Bình Dương, Vietnam",
    "confidence": 0.703704,
    "lng": 106.60737,
    "lat": 11.132001,
    "query": "KHU CÔNG NGHIỆP MỸ PHƯỚC 4 - BÌNH DƯƠNG, Huyện Bến Cát, tỉnh Bình Dương, Vietnam"
  },
  "https://iipmap.com/khu-cong-nghiep-thai-dao-tan-an-bac-ninh": {
    "match_name": "Tân An, Long An, Vietnam",
    "confidence": 0.32716,
    "lng": 106.40607,
    "lat": 10.53893,
    "query": "KHU CÔNG NGHIỆP THÁI ĐÀO - TÂN AN - BẮC NINH, huyện Lạng Giang và thị trấn Tân An, huyện"
  },
  "https://iipmap.com/khu-cong-nghiep-viet-hung-quang-ninh": {
    "match_name": "Hạ Long, Quảng Ninh, Vietnam",
    "confidence": 0.589506,
    "lng": 107.079765,
    "lat": 20.952133,
    "query": "KHU CÔNG NGHIỆP VIỆT HƯNG - QUẢNG NINH, phường Việt Hưng, thành phố Hạ Long, tỉnh Quảng Ninh, Vietnam"
  },
  "https://iipmap.com/khu-cong-nghiep-dong-que-son-quang-nam": {
    "match_name": "Quế Sơn, Quảng Nam, Vietnam",
    "confidence": 0.594444,
    "lng": 108.32928,
    "lat": 15.777651,
    "query": "KHU CÔNG NGHIỆP ĐÔNG QUẾ SƠN - QUẢNG NAM, Huyện Quế Sơn, tỉnh Quảng Nam, Vietnam"
  },
  "https://iipmap.com/khu-cong-nghiep-vinh-loc-ho-chi-minh": {
    "match_name": "Ho Chi Minh City, Vietnam",
    "confidence": 0.514597,
    "lng": 106.701756,
    "lat": 10.775844,
    "query": "KHU CÔNG NGHIỆP VĨNH LỘC – HỒ CHÍ MINH, phường Bình Tân, thành phố Hồ Chí Minh, Vietnam"
  },
  "https://iipmap.com/khu-cong-nghiep-minh-chau-ninh-binh": {
    "match_name": "Ninh Bình, Ninh Bình, Vietnam",
    "confidence": 0.575397,
    "lng": 105.97167,
    "lat": 20.257044,
    "query": "KHU CÔNG NGHIỆP MINH CHÂU - NINH BÌNH, Huyện Nghĩa Hưng, tỉnh Ninh Bình, Vietnam"
  },
  "https://iipmap.com/khu-cong-nghiep-tho-hoang-hung-yen": {
    "match_name": "Ân Thi, Hưng Yên, Vietnam",
    "confidence": 0.477329,
    "lng": 106.08871,
    "lat": 20.818098,
    "query": "KHU CÔNG NGHIỆP THỔ HOÀNG - HƯNG YÊN, xã Quang Lãng và thị trấn Ân Thi, huyện Ân Thi, tỉnh"
  },
  "https://iipmap.com/khu-cong-nghiep-hau-can-cang-tam-hiep-quang-nam": {
    "match_name": "Núi Thành, Quảng Nam, Vietnam",
    "confidence": 0.487329,
    "lng": 108.65133,
    "lat": 15.435313,
    "query": "KHU CÔNG NGHIỆP HẬU CẦN CẢNG TAM HIỆP - QUẢNG NAM, xã Tam Hiệp, huyện Núi Thành, tỉnh Quảng Nam,"
  },
  "https://iipmap.com/khu-cong-nghiep-luong-tai-i-bac-ninh": {
    "match_name": "Bắc Ninh, Bắc Ninh, Vietnam",
    "confidence": 0.564815,
    "lng": 106.06527,
    "lat": 21.180523,
    "query": "KHU CÔNG NGHIỆP LƯƠNG TÀI I - BẮC NINH, xã Trung Kênh, tỉnh Bắc Ninh, Vietnam"
  },
  "https://iipmap.com/cum-cong-nghiep-ho-tro-cach-bi-bac-ninh": {
    "match_name": "Bắc Ninh, Bắc Ninh, Vietnam",
    "confidence": 0.555556,
    "lng": 106.06527,
    "lat": 21.180523,
    "query": "CỤM CÔNG NGHIỆP HỖ TRỢ CÁCH BI - BẮC NINH, phường Bồng Lai, tỉnh Bắc Ninh, Vietnam"
  },
  "https://iipmap.com/cum-cong-nghiep-gia-phu-son-la": {
    "match_name": "Sơn La, Sơn La, Vietnam",
    "confidence": 0.575397,
    "lng": 103.91791,
    "lat": 21.322594,
    "query": "CỤM CÔNG NGHIỆP GIA PHÙ - SƠN LA, xã Gia Phù, tỉnh Sơn La, Vietnam"
  },
  "https://iipmap.com/cum-cong-nghiep-thinh-minh-1-phu-tho": {
    "match_name": "Phú Thọ, Phú Thọ, Vietnam",
    "confidence": 0.564815,
    "lng": 105.222466,
    "lat": 21.400158,
    "query": "CỤM CÔNG NGHIỆP THỊNH MINH 1 - PHÚ THỌ, xã Thịnh Minh, tỉnh Phú Thọ, Vietnam"
  },
  "https://iipmap.com/cum-cong-nghiep-tam-da-dung-liet-2-bac-ninh": {
    "match_name": "Tân Yên, Bắc Giang, Vietnam",
    "confidence": 0.490123,
    "lng": 106.1271,
    "lat": 21.387363,
    "query": "CỤM CÔNG NGHIỆP TAM ĐA - DŨNG LIỆT 2 - BẮC NINH, xã Tam Đa, huyện Yên Phong, tỉnh Bắc"
  },
  "https://iipmap.com/khu-cong-nghiep-dong-soc-vinh-phuc": {
    "match_name": "Vĩnh Tường, Vĩnh Phúc, Vietnam",
    "confidence": 0.607143,
    "lng": 105.51363,
    "lat": 21.215843,
    "query": "KHU CÔNG NGHIỆP ĐỒNG SÓC - VĨNH PHÚC, Huyện Vĩnh Tường, tỉnh Vĩnh Phúc, Vietnam"
  },
  "https://iipmap.com/khu-cong-nghiep-vsip-lang-son-lang-son": {
    "match_name": "Hữu Lũng, Lạng Sơn, Vietnam",
    "confidence": 0.477329,
    "lng": 106.344055,
    "lat": 21.50598,
    "query": "KHU CÔNG NGHIỆP VSIP LẠNG SƠN - LẠNG SƠN, Xã Hồ Sơn và xã Hòa Thắng, huyện Hữu Lũng, tỉnh"
  },
  "https://iipmap.com/khu-cong-nghiep-so-1-hung-yen": {
    "match_name": "Yên Mỹ, Hưng Yên, Vietnam",
    "confidence": 0.477329,
    "lng": 106.03264,
    "lat": 20.880495,
    "query": "KHU CÔNG NGHIỆP SỐ 1 – HƯNG YÊN, huyện Yên Mỹ và xã Vân Du, huyện Ân Thi, tỉnh Hưng"
  },
  "https://iipmap.com/khu-cong-nghiep-yen-binh-2-thai-nguyen": {
    "match_name": "Phổ Yên, Thái Nguyên, Vietnam",
    "confidence": 0.507157,
    "lng": 105.871735,
    "lat": 21.419365,
    "query": "KHU CÔNG NGHIỆP YÊN BÌNH 2 - THÁI NGUYÊN, thành phố Phổ Yên và huyện Phú Bình, Vietnam"
  },
  "https://iipmap.com/cum-cong-nghiep-quang-duc-quang-ninh": {
    "match_name": "Quảng Ninh, Quảng Bình, Vietnam",
    "confidence": 0.465608,
    "lng": 106.63829,
    "lat": 17.402655,
    "query": "CỤM CÔNG NGHIỆP QUẢNG ĐỨC - QUẢNG NINH, xã Quảng Đức, tỉnh Quảng Ninh, Vietnam"
  },
  "https://iipmap.com/khu-cong-nghiep-phuc-dien-hai-phong": {
    "match_name": "Haiphong, Vietnam",
    "confidence": 0.444444,
    "lng": 106.674959,
    "lat": 20.858864,
    "query": "KHU CÔNG NGHIỆP PHÚC ĐIỀN - HẢI PHÒNG, Xã Cẩm Phúc, huyện Cẩm Giàng, thành phố Hải Phòng, Vietnam"
  },
  "https://iipmap.com/cum-cong-nghiep-tan-duc-mo-rong-binh-dinh": {
    "match_name": "An Nhơn, Bình Định, Vietnam",
    "confidence": 0.510721,
    "lng": 109.113304,
    "lat": 13.886543,
    "query": "CỤM CÔNG NGHIỆP TÂN ĐỨC MỞ RỘNG - BÌNH ĐỊNH, xã Nhơn Mỹ, thị xã An Nhơn, tỉnh Bình Định,"
  },
  "https://iipmap.com/cum-cong-nghiep-ngu-hung-thanh-giang-hai-phong": {
    "match_name": "Haiphong, Vietnam",
    "confidence": 0.448802,
    "lng": 106.674959,
    "lat": 20.858864,
    "query": "CỤM CÔNG NGHIỆP NGŨ HÙNG - THANH GIANG - HẢI PHÒNG, xã Thanh Miện, thành phố Hải Phòng, Vietnam"
  },
  "https://iipmap.com/khu-cong-nghiep-xuyen-a-long-an": {
    "match_name": "Đức Hòa, Long An, Vietnam",
    "confidence": 0.607143,
    "lng": 106.457375,
    "lat": 10.823656,
    "query": "KHU CÔNG NGHIỆP XUYÊN Á - LONG AN, Huyện Đức Hòa, tỉnh Long An, Vietnam"
  },
  "https://iipmap.com/khu-cong-nghiep-nghia-hung-bac-ninh": {
    "match_name": "Lạng Giang, Bắc Giang, Vietnam",
    "confidence": 0.55653,
    "lng": 106.25967,
    "lat": 21.353842,
    "query": "KHU CÔNG NGHIỆP NGHĨA HƯNG - BẮC NINH, Xã Đào Mỹ và xã Nghĩa Hưng, huyện Lạng Giang, tỉnh Bắc"
  },
  "https://iipmap.com/cum-cong-nghiep-quang-trung-dong-nai": {},
  "https://iipmap.com/cum-cong-nghiep-an-son-duc-lan-quang-ngai": {
    "match_name": "Quảng Ngãi, Quảng Ngãi, Vietnam",
    "confidence": 0.555556,
    "lng": 108.80173,
    "lat": 15.122847,
    "query": "CỤM CÔNG NGHIỆP AN SƠN - ĐỨC LÂN - QUẢNG NGÃI, xã Lân Phong, tỉnh Quảng Ngãi, Vietnam"
  },
  "https://iipmap.com/cum-cong-nghiep-lien-phuong-ha-noi": {
    "match_name": "Hanoi, Vietnam",
    "confidence": 0.459259,
    "lng": 105.854444,
    "lat": 21.02945,
    "query": "CỤM CÔNG NGHIỆP LIÊN PHƯƠNG - HÀ NỘI, xã Hồng Vân, thành phố Hà Nội, Vietnam"
  },
  "https://iipmap.com/cum-cong-nghiep-bac-van-yen-yen-bai": {
    "match_name": "Văn Yên, Yên Bái, Vietnam",
    "confidence": 0.564815,
    "lng": 104.68969,
    "lat": 21.879597,
    "query": "CỤM CÔNG NGHIỆP BẮC VĂN YÊN - YÊN BÁI, xã Đông Cuông, huyện Văn Yên, tỉnh Yên Bái, Vietnam"
  },
  "https://iipmap.com/cum-cong-nghiep-jutech-bac-ninh": {
    "match_name": "Bắc Ninh, Bắc Ninh, Vietnam",
    "confidence": 0.555556,
    "lng": 106.06527,
    "lat": 21.180523,
    "query": "CỤM CÔNG NGHIỆP JUTECH - BẮC NINH, Xã Hương Lâm, huyện Hiệp Hòa, tỉnh Bắc Ninh, Vietnam"
  },
  "https://iipmap.com/cum-cong-nghiep-tien-hung-bac-ninh": {
    "match_name": "Bắc Ninh, Bắc Ninh, Vietnam",
    "confidence": 0.547386,
    "lng": 106.06527,
    "lat": 21.180523,
    "query": "CỤM CÔNG NGHIỆP TIÊN HƯNG - BẮC NINH, Xã Khám Lạng, huyện Lục Nam, tỉnh Bắc Ninh, Vietnam"
  },
  "https://iipmap.com/khu-cong-nghiep-duoc-sinh-hoc-thai-binh": {
    "match_name": "Quỳnh Phụ, Thái Bình, Vietnam",
    "confidence": 0.483827,
    "lng": 106.32499,
    "lat": 20.656372,
    "query": "KHU CÔNG NGHIỆP DƯỢC - SINH HỌC - THÁI BÌNH, xã An Vinh và xã Đông Hải, huyện Quỳnh Phụ,"
  },
  "https://iipmap.com/cum-cong-nghiep-nam-son-quang-ninh": {
    "match_name": "Ba Chẽ, Quảng Ninh, Vietnam",
    "confidence": 0.575397,
    "lng": 107.283195,
    "lat": 21.274008,
    "query": "CỤM CÔNG NGHIỆP NAM SƠN - QUẢNG NINH, xã Ba Chẽ, tỉnh Quảng Ninh, Vietnam"
  },
  "https://iipmap.com/khu-cong-nghiep-wha-industrial-zone-2-nghe-an": {
    "match_name": "Nghi Lộc, Nghệ An, Vietnam",
    "confidence": 0.557018,
    "lng": 105.64633,
    "lat": 18.779678,
    "query": "KHU CÔNG NGHIỆP WHA INDUSTRIAL ZONE 2 - NGHỆ AN, xã Nghi Đồng, huyện Nghi Lộc, tỉnh Nghệ An, Vietnam"
  },
  "https://iipmap.com/khu-cong-nghiep-bim-son-a-thanh-hoa": {
    "match_name": "Bỉm Sơn, Thanh Hóa, Vietnam",
    "confidence": 0.611111,
    "lng": 105.8576,
    "lat": 20.08487,
    "query": "KHU CÔNG NGHIỆP BỈM SƠN A - THANH HÓA, Thị xã Bỉm Sơn, tỉnh Thanh Hóa, Vietnam"
  },
  "https://iipmap.com/khu-cong-nghiep-det-may-pho-noi-hung-yen": {
    "match_name": "Mỹ Hào, Hưng Yên, Vietnam",
    "confidence": 0.500721,
    "lng": 106.058586,
    "lat": 20.937,
    "query": "KHU CÔNG NGHIỆP DỆT MAY PHỐ NỐI - HƯNG YÊN, Huyện Yên Mỹ và thị xã Mỹ Hào, tỉnh Hưng"
  },
  "https://iipmap.com/cum-cong-nghiep-long-phuoc-1-dong-nai": {
    "match_name": "Long Thành, Đồng Nai, Vietnam",
    "confidence": 0.564815,
    "lng": 106.95096,
    "lat": 10.782615,
    "query": "CỤM CÔNG NGHIỆP LONG PHƯỚC 1 - ĐỒNG NAI, xã Long Phước, huyện Long Thành, tỉnh Đồng Nai, Vietnam"
  },
  "https://iipmap.com/khu-cong-nghiep-dong-banh-lang-son": {
    "match_name": "Chi Lăng, Lạng Sơn, Vietnam",
    "confidence": 0.477329,
    "lng": 106.50351,
    "lat": 21.572186,
    "query": "KHU CÔNG NGHIỆP ĐỒNG BÀNH - LẠNG SƠN, huyện Hữu Lũng và thị trấn Chi Lăng, huyện Chi Lăng, tỉnh"
  },
  "https://iipmap.com/khu-cong-nghiep-dinh-quan-dong-nai": {
    "match_name": "Định Quán, Đồng Nai, Vietnam",
    "confidence": 0.575397,
    "lng": 107.35674,
    "lat": 11.200564,
    "query": "KHU CÔNG NGHIỆP ĐỊNH QUÁN - ĐỒNG NAI, xã La Ngà, tỉnh Đồng Nai, Vietnam"
  },
  "https://iipmap.com/khu-cong-nghiep-phuc-dien-mo-rong-hai-phong": {
    "match_name": "Haiphong, Vietnam",
    "confidence": 0.448802,
    "lng": 106.674959,
    "lat": 20.858864,
    "query": "KHU CÔNG NGHIỆP PHÚC ĐIỀN MỞ RỘNG - HẢI PHÒNG, Huyện Cẩm Giàng, thành phố Hải Phòng, Vietnam"
  },
  "https://iipmap.com/khu-cong-nghiep-binh-dong-tien-giang": {
    "match_name": "Gò Công, Tiền Giang, Vietnam",
    "confidence": 0.624074,
    "lng": 106.6751,
    "lat": 10.359277,
    "query": "KHU CÔNG NGHIỆP BÌNH ĐÔNG - TIỀN GIANG, Thị xã Gò Công, tỉnh Tiền Giang, Vietnam"
  },
  "https://iipmap.com/khu-cong-nghiep-my-xuan-b1-conac-mo-rong-ba-ria-vung-tau": {
    "match_name": "Phú Mỹ, Bà Rịa-Vũng Tàu, Vietnam",
    "confidence": 0.569521,
    "lng": 107.05837,
    "lat": 10.588168,
    "query": "KHU CÔNG NGHIỆP MỸ XUÂN B1 - CONAC MỞ RỘNG - BÀ RỊA - VŨNG TÀU, Thị xã Phú Mỹ,"
  },
  "https://iipmap.com/cum-cong-nghiep-duc-tho-ha-tinh": {
    "match_name": "Đức Thọ, Hà Tĩnh, Vietnam",
    "confidence": 0.477329,
    "lng": 105.58542,
    "lat": 18.53091,
    "query": "CỤM CÔNG NGHIỆP ĐỨC THỌ - HÀ TĨNH, Xã Tùng Ảnh và xã Tân Dân, huyện Đức Thọ, tỉnh Hà"
  },
  "https://iipmap.com/cum-cong-nghiep-hoang-dong-thanh-hoa": {
    "match_name": "Hoằng Hóa, Thanh Hóa, Vietnam",
    "confidence": 0.573529,
    "lng": 105.93259,
    "lat": 19.842691,
    "query": "CỤM CÔNG NGHIỆP HOẰNG ĐÔNG - THANH HÓA, xã Hoằng Đông, huyện Hoằng Hóa, tỉnh Thanh Hóa, Vietnam"
  },
  "https://iipmap.com/khu-cong-nghiep-so-3-hung-yen": {
    "match_name": "Yên Mỹ, Hưng Yên, Vietnam",
    "confidence": 0.487329,
    "lng": 106.03264,
    "lat": 20.880495,
    "query": "KHU CÔNG NGHIỆP SỐ 3 - HƯNG YÊN, Huyện Yên Mỹ, huyện Khoái Châu và Ân Thi, tỉnh Hưng Yên,"
  },
  "https://iipmap.com/cum-cong-nghiep-dong-son-bac-ninh": {
    "match_name": "Bắc Ninh, Bắc Ninh, Vietnam",
    "confidence": 0.547386,
    "lng": 106.06527,
    "lat": 21.180523,
    "query": "CỤM CÔNG NGHIỆP ĐÔNG SƠN - BẮC NINH, Xã Đông Sơn, huyện Yên Thế, tỉnh Bắc Ninh, Vietnam"
  },
  "https://iipmap.com/khu-cong-nghiep-yen-binh-3-thai-nguyen": {
    "match_name": "Phú Bình, Thái Nguyên, Vietnam",
    "confidence": 0.564815,
    "lng": 105.97898,
    "lat": 21.461441,
    "query": "KHU CÔNG NGHIỆP YÊN BÌNH 3 - THÁI NGUYÊN, xã Nga My, huyện Phú Bình, tỉnh Thái Nguyên, Vietnam"
  },
  "https://iipmap.com/cum-cong-nghiep-tang-tien-bac-ninh": {
    "match_name": "Bắc Ninh, Bắc Ninh, Vietnam",
    "confidence": 0.547386,
    "lng": 106.06527,
    "lat": 21.180523,
    "query": "CỤM CÔNG NGHIỆP TĂNG TIẾN – BẮC NINH, Xã Tăng Tiến, huyện Việt Yên, tỉnh Bắc Ninh, Vietnam"
  },
  "https://iipmap.com/cum-cong-nghiep-mai-dinh-ha-noi": {
    "match_name": "Hanoi, Vietnam",
    "confidence": 0.459259,
    "lng": 105.854444,
    "lat": 21.02945,
    "query": "CỤM CÔNG NGHIỆP MAI ĐÌNH - HÀ NỘI, xã Sóc Sơn, thành phố Hà Nội, Vietnam"
  },
  "https://iipmap.com/khu-cong-nghiep-dong-van-vi-ninh-binh": {
    "match_name": "Ninh Bình, Ninh Bình, Vietnam",
    "confidence": 0.324561,
    "lng": 105.97167,
    "lat": 20.257044,
    "query": "KHU CÔNG NGHIỆP ĐỒNG VĂN VI – NINH BÌNH, xã Yên Nam và xã Tiên Sơn, thị xã Duy Tiên,"
  },
  "https://iipmap.com/khu-cong-nghiep-cam-khe-phu-tho": {
    "match_name": "Cẩm Khê, Phú Thọ, Vietnam",
    "confidence": 0.564815,
    "lng": 105.133095,
    "lat": 21.42203,
    "query": "KHU CÔNG NGHIỆP CẨM KHÊ - PHÚ THỌ, Thị trấn Cẩm Khê, huyện Cẩm Khê, tỉnh Phú Thọ, Vietnam"
  },
  "https://iipmap.com/khu-cong-nghiep-tran-yen-yen-bai": {
    "match_name": "Trấn Yên, Yên Bái, Vietnam",
    "confidence": 0.573529,
    "lng": 104.8298,
    "lat": 21.753992,
    "query": "KHU CÔNG NGHIỆP TRẤN YÊN - YÊN BÁI, xã Minh Quân, huyện Trấn Yên, tỉnh Yên Bái, Vietnam"
  },
  "https://iipmap.com/khu-cong-nghiep-phu-bai-thua-thien-hue": {
    "match_name": "Huế, Huế, Vietnam",
    "confidence": 0.529815,
    "lng": 107.594864,
    "lat": 16.463463,
    "query": "KHU CÔNG NGHIỆP PHÚ BÀI – THỪA THIÊN HUẾ, phường Phú Bài, thành phố Huế, Vietnam"
  },
  "https://iipmap.com/cum-cong-nghiep-da-oai-lam-dong": {
    "match_name": "Đạ Huoai, Lâm Đồng, Vietnam",
    "confidence": 0.573529,
    "lng": 107.53462,
    "lat": 11.385036,
    "query": "CỤM CÔNG NGHIỆP ĐẠ OAI - LÂM ĐỒNG, Xã Đạ Oai, huyện Đạ Huoai, tỉnh Lâm Đồng, Vietnam"
  },
  "https://iipmap.com/khu-cong-nghiep-dong-binh-vinh-long": {
    "match_name": "Bình Minh, Vĩnh Long, Vietnam",
    "confidence": 0.624074,
    "lng": 105.813835,
    "lat": 10.068787,
    "query": "KHU CÔNG NGHIỆP ĐÔNG BÌNH - VĨNH LONG, Thị xã Bình Minh, tỉnh Vĩnh Long, Vietnam"
  },
  "https://iipmap.com/khu-cong-nghiep-dong-van-v-ninh-binh": {
    "match_name": "Ninh Bình, Ninh Bình, Vietnam",
    "confidence": 0.555556,
    "lng": 105.97167,
    "lat": 20.257044,
    "query": "KHU CÔNG NGHIỆP ĐỒNG VĂN V - NINH BÌNH, Thị xã Duy Tiên, tỉnh Ninh Binh, Vietnam"
  },
  "https://iipmap.com/cum-cong-nghiep-ha-khanh-quang-ninh": {
    "match_name": "Quảng Ninh, Quảng Bình, Vietnam",
    "confidence": 0.465608,
    "lng": 106.63829,
    "lat": 17.402655,
    "query": "CỤM CÔNG NGHIỆP HÀ KHÁNH - QUẢNG NINH, phường Cao Xanh, tỉnh Quảng Ninh, Vietnam"
  },
  "https://iipmap.com/cum-cong-nghiep-khanh-nhac-ninh-binh": {
    "match_name": "Ninh Bình, Ninh Bình, Vietnam",
    "confidence": 0.575397,
    "lng": 105.97167,
    "lat": 20.257044,
    "query": "CỤM CÔNG NGHIỆP KHÁNH NHẠC - NINH BÌNH, xã Khánh Nhạc, tỉnh Ninh Bình, Vietnam"
  },
  "https://iipmap.com/cum-cong-nghiep-doan-tung-2-hai-phong": {
    "match_name": "Giang Thành, Kiên Giang, Vietnam",
    "confidence": 0.560819,
    "lng": 104.63469,
    "lat": 10.511825,
    "query": "CỤM CÔNG NGHIỆP ĐOÀN TÙNG 2 - HẢI PHÒNG, Xã Đoàn Tùng, huyện Thanh Miện, thành phố Hải Phòng, Vietnam"
  },
  "https://iipmap.com/cum-cong-nghiep-thanh-long-tay-ninh": {
    "match_name": "Tây Ninh, Tây Ninh, Vietnam",
    "confidence": 0.575397,
    "lng": 106.09091,
    "lat": 11.316238,
    "query": "CỤM CÔNG NGHIỆP THÀNH LONG - TÂY NINH, xã Ninh Điền, tỉnh Tây Ninh, Vietnam"
  },
  "https://iipmap.com/khu-cong-nghiep-tinh-phong-quang-ngai": {
    "match_name": "Quảng Ngãi, Quảng Ngãi, Vietnam",
    "confidence": 0.575397,
    "lng": 108.80173,
    "lat": 15.122847,
    "query": "KHU CÔNG NGHIỆP TỊNH PHONG - QUẢNG NGÃI, xã Thọ Phong, tỉnh Quảng Ngãi, Vietnam"
  },
  "https://iipmap.com/cum-cong-nghiep-thuan-loc-thanh-hoa": {
    "match_name": "Hậu Lộc, Thanh Hóa, Vietnam",
    "confidence": 0.573529,
    "lng": 105.88367,
    "lat": 19.913815,
    "query": "CỤM CÔNG NGHIỆP THUẦN LỘC - THANH HÓA, xã Thuần Lộc, huyện Hậu Lộc, tỉnh Thanh Hóa, Vietnam"
  },
  "https://iipmap.com/khu-cong-nghiep-gia-binh-hanaka": {
    "match_name": "Gia Bình, Bắc Ninh, Vietnam",
    "confidence": 0.583333,
    "lng": 106.17432,
    "lat": 21.052668,
    "query": "KHU CÔNG NGHIỆP GIA BÌNH HANAKA, Xã Bình Dương, huyện Gia Bình, tỉnh Bắc Ninh, Vietnam"
  },
  "https://iipmap.com/khu-cong-nghiep-tan-trao-giai-doan-i-hai-phong": {
    "match_name": "Nha Trang, Khánh Hòa, Vietnam",
    "confidence": 0.32716,
    "lng": 109.18859,
    "lat": 12.241498,
    "query": "KHU CÔNG NGHIỆP TÂN TRÀO - GIAI ĐOẠN I - HẢI PHÒNG, xã Kiến Hưng, xã Nghi Dương, thành phố"
  },
  "https://iipmap.com/khu-cong-nghiep-hoa-phu-dak-lak": {
    "match_name": "Lắk, Đắk Lắk, Vietnam",
    "confidence": 0.543651,
    "lng": 108.17372,
    "lat": 12.408505,
    "query": "KHU CÔNG NGHIỆP HÒA PHÚ - ĐẮK LẮK, xã Hòa Phú, tỉnh Đắk Lắk, Vietnam"
  },
  "https://iipmap.com/cum-cong-nghiep-xuan-lai-thanh-hoa": {
    "match_name": "Thọ Xuân, Thanh Hóa, Vietnam",
    "confidence": 0.573529,
    "lng": 105.520294,
    "lat": 19.932283,
    "query": "CỤM CÔNG NGHIỆP XUÂN LAI - THANH HÓA, xã Xuân Lai, huyện Thọ Xuân, tỉnh Thanh Hóa, Vietnam"
  },
  "https://iipmap.com/khu-cong-nghiep-an-phat-1-hai-phong": {
    "match_name": "Haiphong, Vietnam",
    "confidence": 0.324561,
    "lng": 106.674959,
    "lat": 20.858864,
    "query": "KHU CÔNG NGHIỆP AN PHÁT 1 - HẢI PHÒNG, xã An Bình và xã An Lâm, huyện Nam Sách, thành"
  },
  "https://iipmap.com/cum-cong-nghiep-tan-thinh-ninh-binh": {
    "match_name": "Ninh Bình, Ninh Bình, Vietnam",
    "confidence": 0.547386,
    "lng": 105.97167,
    "lat": 20.257044,
    "query": "CỤM CÔNG NGHIỆP TÂN THỊNH - NINH BÌNH, Xã Tân Thịnh, huyện Nam Trực, tỉnh Ninh Bình, Vietnam"
  },
  "https://iipmap.com/cum-cong-nghiep-binh-minh-thai-binh": {
    "match_name": "Kiến Xương, Thái Bình, Vietnam",
    "confidence": 0.477329,
    "lng": 106.43929,
    "lat": 20.38877,
    "query": "CỤM CÔNG NGHIỆP BÌNH MINH - THÁI BÌNH, Thị trấn Kiến Xương và xã Bình Minh, huyện Kiến Xương, tỉnh"
  },
  "https://iipmap.com/khu-cong-nghiep-quang-minh-ha-noi": {
    "match_name": "Hanoi, Vietnam",
    "confidence": 0.324561,
    "lng": 105.854444,
    "lat": 21.02945,
    "query": "KHU CÔNG NGHIỆP QUANG MINH - HÀ NỘI, Thị trấn Quang Minh và thị trấn Chi Đông, huyện Mê Linh,"
  },
  "https://iipmap.com/khu-cong-nghiep-vsip-hai-duong-hai-phong": {
    "match_name": "Cẩm Giàng, Hải Dương, Vietnam",
    "confidence": 0.611914,
    "lng": 106.169395,
    "lat": 20.96771,
    "query": "KHU CÔNG NGHIỆP VSIP HẢI DƯƠNG - HẢI PHÒNG, Xã Cẩm Điền, huyện Cẩm Giàng, tỉnh Hải Phòng, Vietnam"
  },
  "https://iipmap.com/khu-cong-nghiep-song-may-dong-nai": {
    "match_name": "Bình Minh, Vĩnh Long, Vietnam",
    "confidence": 0.356209,
    "lng": 105.813835,
    "lat": 10.068787,
    "query": "KHU CÔNG NGHIỆP SÔNG MÂY - ĐỒNG NAI, xã Bình Minh, phường Long Bình, tỉnh Đồng Nai, Vietnam"
  },
  "https://iipmap.com/khu-cong-nghiep-sai-dong-b-ha-noi": {
    "match_name": "Hanoi, Vietnam",
    "confidence": 0.440546,
    "lng": 105.854444,
    "lat": 21.02945,
    "query": "KHU CÔNG NGHIỆP SÀI ĐỒNG B - HÀ NỘI, Phường Sài Đồng, quận Long Biên, thành phố Hà Nội, Vietnam"
  },
  "https://iipmap.com/cum-cong-nghiep-gia-thuan-1-tien-giang": {
    "match_name": "Gò Công, Tiền Giang, Vietnam",
    "confidence": 0.540123,
    "lng": 106.6751,
    "lat": 10.359277,
    "query": "CỤM CÔNG NGHIỆP GIA THUẬN 1 - TIỀN GIANG, xã Gia Thuận, huyện Gò Công, tỉnh Tiền Giang, Vietnam"
  },
  "https://iipmap.com/cum-cong-nghiep-na-duong-2-lang-son": {
    "match_name": "Lộc Bình, Lạng Sơn, Vietnam",
    "confidence": 0.564815,
    "lng": 106.92246,
    "lat": 21.75968,
    "query": "CỤM CÔNG NGHIỆP NA DƯƠNG 2 - LẠNG SƠN, Xã Đông Quan, huyện Lộc Bình, tỉnh Lạng Sơn, Vietnam"
  },
  "https://iipmap.com/khu-cong-nghiep-tam-thang-lam-dong": {
    "match_name": "Cư Jút, Đắk Nông, Vietnam",
    "confidence": 0.373016,
    "lng": 107.89388,
    "lat": 12.587251,
    "query": "KHU CÔNG NGHIỆP TÂM THẮNG - LÂM ĐỒNG, xã Cư Jút, tỉnh Lâm Đồng, Vietnam"
  },
  "https://iipmap.com/khu-cong-nghiep-vsip-iii-binh-duong": {
    "match_name": "Bắc Tân Uyên, Bình Dương, Vietnam",
    "confidence": 0.500721,
    "lng": 106.84385,
    "lat": 11.150085,
    "query": "KHU CÔNG NGHIỆP VSIP III - BÌNH DƯƠNG, thị xã Tân Uyên và xã Tân Lập, huyện Bắc Tân Uyên,"
  },
  "https://iipmap.com/khu-cong-nghiep-cat-lai-ii-ho-chi-minh": {
    "match_name": "Ho Chi Minh City, Vietnam",
    "confidence": 0.506173,
    "lng": 106.701756,
    "lat": 10.775844,
    "query": "KHU CÔNG NGHIỆP CÁT LÁI II - HỒ CHÍ MINH, phường Cát Lái, thành phố Hồ Chí Minh, Vietnam"
  },
  "https://iipmap.com/cum-cong-nghiep-dong-ha-lam-dong": {
    "match_name": "Đông Hà, Quảng Trị, Vietnam",
    "confidence": 0.465608,
    "lng": 107.101135,
    "lat": 16.814032,
    "query": "CỤM CÔNG NGHIỆP ĐÔNG HÀ - LÂM ĐỒNG, xã Trà Tân, tỉnh Lâm Đồng, Vietnam"
  },
  "https://iipmap.com/khu-cong-nghiep-nhon-hoa-binh-dinh": {
    "match_name": "An Nhơn, Bình Định, Vietnam",
    "confidence": 0.589506,
    "lng": 109.113304,
    "lat": 13.886543,
    "query": "KHU CÔNG NGHIỆP NHƠN HÒA - BÌNH ĐỊNH, Phường Nhơn Hòa, thị xã An Nhơn, tỉnh Bình Định, Vietnam"
  },
  "https://iipmap.com/khu-cong-nghiep-vinh-quang-giai-doan-1-hai-phong": {
    "match_name": "Haiphong, Vietnam",
    "confidence": 0.324561,
    "lng": 106.674959,
    "lat": 20.858864,
    "query": "KHU CÔNG NGHIỆP VINH QUANG GIAI ĐOẠN 1 - HẢI PHÒNG, xã Thanh Lương, huyện Vĩnh Bảo, thành phố Hải"
  },
  "https://iipmap.com/cum-cong-nghiep-khanh-loi-ninh-binh": {
    "match_name": "Yên Khánh, Ninh Bình, Vietnam",
    "confidence": 0.477329,
    "lng": 106.059944,
    "lat": 20.181799,
    "query": "CỤM CÔNG NGHIỆP KHÁNH LỢI - NINH BÌNH, xã Khánh Tiên và xã Khánh Thiện, huyện Yên Khánh, tỉnh Ninh"
  },
  "https://iipmap.com/khu-cong-nghiep-doc-da-trang-khanh-hoa": {
    "match_name": "Ninh Hòa, Khánh Hòa, Vietnam",
    "confidence": 0.611111,
    "lng": 109.12943,
    "lat": 12.493036,
    "query": "KHU CÔNG NGHIỆP DỐC ĐÁ TRẮNG - KHÁNH HÒA, Thị xã Ninh Hòa, tỉnh Khánh Hòa, Vietnam"
  },
  "https://iipmap.com/cum-cong-nghiep-trung-son-ninh-binh": {
    "match_name": "Tam Điệp, Ninh Bình, Vietnam",
    "confidence": 0.500721,
    "lng": 105.91409,
    "lat": 20.15438,
    "query": "CỤM CÔNG NGHIỆP TRUNG SƠN - NINH BÌNH, phường Trung Sơn và xã Đông Sơn, thành phố Tam Điệp, tỉnh"
  },
  "https://iipmap.com/cum-cong-nghiep-bac-lam-thao-phu-tho": {
    "match_name": "Lâm Thao, Phú Thọ, Vietnam",
    "confidence": 0.564815,
    "lng": 105.28661,
    "lat": 21.323784,
    "query": "CỤM CÔNG NGHIỆP BẮC LÂM THAO - PHÚ THỌ, Xã Tiên Kiên, huyện Lâm Thao, tỉnh Phú Thọ, Vietnam"
  },
  "https://iipmap.com/khu-cong-nghiep-ho-tro-dong-van-iii-ninh-binh": {
    "match_name": "Ninh Bình, Ninh Bình, Vietnam",
    "confidence": 0.540123,
    "lng": 105.97167,
    "lat": 20.257044,
    "query": "KHU CÔNG NGHIỆP HỖ TRỢ ĐỒNG VĂN III - NINH BÌNH, Thị xã Duy Tiên, tỉnh Ninh Bình, Vietnam"
  },
  "https://iipmap.com/khu-cong-nghiep-co-khi-o-to-chu-lai-truong-hai-mo-rong-quang-nam": {
    "match_name": "Hiệp Đức, Quảng Nam, Vietnam",
    "confidence": 0.430546,
    "lng": 108.11126,
    "lat": 15.582407,
    "query": "KHU CÔNG NGHIỆP CƠ KHÍ Ô TÔ CHU LAI TRƯỜNG HẢI MỞ RỘNG - QUẢNG NAM, xã Tam Hiệp, huyện"
  },
  "https://iipmap.com/khu-cong-nghiep-dong-xoai-ii-binh-phuoc": {
    "match_name": "Đồng Xoài, Bình Phước, Vietnam",
    "confidence": 0.533626,
    "lng": 106.894325,
    "lat": 11.531429,
    "query": "KHU CÔNG NGHIỆP ĐỒNG XOÀI II - BÌNH PHƯỚC, Xã Tiến Thành, Thị xã Đồng Xoài, tỉnh Bình Phước, Vietnam"
  },
  "https://iipmap.com/cum-cong-nghiep-ha-thinh-bac-ninh": {
    "match_name": "Bắc Ninh, Bắc Ninh, Vietnam",
    "confidence": 0.547386,
    "lng": 106.06527,
    "lat": 21.180523,
    "query": "CỤM CÔNG NGHIỆP HÀ THỊNH - BẮC NINH, xã Hợp Thịnh, xã Bảo Đài, tỉnh Bắc Ninh, Vietnam"
  },
  "https://iipmap.com/khu-cong-nghiep-binh-long-an-giang": {
    "match_name": "Châu Phú, An Giang, Vietnam",
    "confidence": 0.575397,
    "lng": 105.23918,
    "lat": 10.573062,
    "query": "KHU CÔNG NGHIỆP BÌNH LONG - AN GIANG, xã Châu Phú, tỉnh An Giang, Vietnam"
  },
  "https://iipmap.com/khu-cong-nghiep-dat-cuoc-mo-rong-ho-chi-minh": {
    "match_name": "Ho Chi Minh City, Vietnam",
    "confidence": 0.378947,
    "lng": 106.701756,
    "lat": 10.775844,
    "query": "KHU CÔNG NGHIỆP ĐẤT CUỐC MỞ RỘNG - HỒ CHÍ MINH, xã Bắc Tân Uyên, thành phố Hồ Chí Minh,"
  },
  "https://iipmap.com/khu-cong-nghiep-becamex-binh-phuoc-binh-phuoc": {
    "match_name": "Chơn Thành, Bình Phước, Vietnam",
    "confidence": 0.564815,
    "lng": 106.61544,
    "lat": 11.421391,
    "query": "KHU CÔNG NGHIỆP BECAMEX BÌNH PHƯỚC - BÌNH PHƯỚC, Huyện Chơn Thành, tỉnh Bình Phước, Vietnam"
  },
  "https://iipmap.com/khu-cong-nghiep-thanh-hai-ninh-thuan": {
    "match_name": "Phan Rang-Tháp Chàm, Ninh Thuận, Vietnam",
    "confidence": 0.651961,
    "lng": 108.99465,
    "lat": 11.570206,
    "query": "KHU CÔNG NGHIỆP THÀNH HẢI - NINH THUẬN, Thành phố Phan Rang - Tháp Chàm, tỉnh Ninh Thuận, Vietnam"
  },
  "https://iipmap.com/khu-cong-nghiep-nhon-hoi-b-binh-dinh": {
    "match_name": "Quy Nhơn, Bình Định, Vietnam",
    "confidence": 0.611111,
    "lng": 109.233,
    "lat": 13.7704,
    "query": "KHU CÔNG NGHIỆP NHƠN HỘI B - BÌNH ĐỊNH, Thành phố Quy Nhơn, tỉnh Bình Định, Vietnam"
  },
  "https://iipmap.com/khu-cong-nghiep-thuan-thanh-3b-bac-ninh": {
    "match_name": "Thuận Thành, Bắc Ninh, Vietnam",
    "confidence": 0.594444,
    "lng": 106.09136,
    "lat": 21.050844,
    "query": "KHU CÔNG NGHIỆP THUẬN THÀNH 3B - BẮC NINH, Huyện Thuận Thành, tỉnh Bắc Ninh, Vietnam"
  },
  "https://iipmap.com/cum-cong-nghiep-phuong-nam-quang-ninh": {
    "match_name": "Uông Bí, Quảng Ninh, Vietnam",
    "confidence": 0.589506,
    "lng": 106.76678,
    "lat": 21.034739,
    "query": "CỤM CÔNG NGHIỆP PHƯƠNG NAM - QUẢNG NINH, phường Phương Nam, thành phố Uông Bí, tỉnh Quảng Ninh, Vietnam"
  },
  "https://iipmap.com/cum-cong-nghiep-minh-son-lang-son": {
    "match_name": "Lạng Sơn, Lạng Sơn, Vietnam",
    "confidence": 0.575397,
    "lng": 106.76185,
    "lat": 21.853426,
    "query": "CỤM CÔNG NGHIỆP MINH SƠN - LẠNG SƠN, xã Tuấn Sơn, tỉnh Lạng Sơn, Vietnam"
  },
  "https://iipmap.com/khu-cong-nghiep-vsip-nghe-an-ii-nghe-an": {
    "match_name": "Diễn Châu, Nghệ An, Vietnam",
    "confidence": 0.564815,
    "lng": 105.60068,
    "lat": 18.97755,
    "query": "KHU CÔNG NGHIỆP VSIP NGHỆ AN II - NGHỆ AN, Diễn An, huyện Diễn Châu, tỉnh Nghệ An, Vietnam"
  },
  "https://iipmap.com/khu-cong-nghiep-tam-anh-han-quoc-quang-nam": {
    "match_name": "Núi Thành, Quảng Nam, Vietnam",
    "confidence": 0.483827,
    "lng": 108.65133,
    "lat": 15.435313,
    "query": "KHU CÔNG NGHIỆP TAM ANH - HÀN QUỐC - QUẢNG NAM, Xã Tam Anh Bắc, huyện Núi Thành, tỉnh Quảng"
  },
  "https://iipmap.com/cum-cong-nghiep-viet-nhat-bac-ninh": {
    "match_name": "Bắc Ninh, Bắc Ninh, Vietnam",
    "confidence": 0.575397,
    "lng": 106.06527,
    "lat": 21.180523,
    "query": "CỤM CÔNG NGHIỆP VIỆT NHẬT - BẮC NINH, Huyện Hiệp Hòa, tỉnh Bắc Ninh, Vietnam"
  },
  "https://iipmap.com/cum-cong-nghiep-ta-suc-giai-doan-3-gia-lai": {
    "match_name": "Vinh, Nghệ An, Vietnam",
    "confidence": 0.422658,
    "lng": 105.6763,
    "lat": 18.676456,
    "query": "CỤM CÔNG NGHIỆP TÀ SÚC GIAI ĐOẠN 3 - GIA LAI, xã Vĩnh Quang, tỉnh Gia Lai, Vietnam"
  },
  "https://iipmap.com/cum-cong-nghiep-tan-lap-dong-thap": {
    "match_name": "Châu Thành, Đồng Tháp, Vietnam",
    "confidence": 0.564815,
    "lng": 105.87321,
    "lat": 10.260051,
    "query": "CỤM CÔNG NGHIỆP TÂN LẬP - ĐỒNG THÁP, xã Tân Nhuận Đông, huyện Châu Thành, tỉnh Đồng Tháp, Vietnam"
  },
  "https://iipmap.com/cum-cong-nghiep-hanh-phuc-xuan-phuong-thai-nguyen": {
    "match_name": "Phú Bình, Thái Nguyên, Vietnam",
    "confidence": 0.493827,
    "lng": 105.97898,
    "lat": 21.461441,
    "query": "CỤM CÔNG NGHIỆP HẠNH PHÚC - XUÂN PHƯƠNG - THÁI NGUYÊN, Xã Xuân Phương, huyện Phú Bình, tỉnh Thái Nguyên,"
  },
  "https://iipmap.com/khu-cong-nghiep-cang-bien-hon-la-quang-tri": {
    "match_name": "Quảng Trị, Quảng Trị, Vietnam",
    "confidence": 0.555556,
    "lng": 107.18769,
    "lat": 16.746845,
    "query": "KHU CÔNG NGHIỆP CẢNG BIỂN HÒN LA - QUẢNG TRỊ, xã Phú Trạch, tỉnh Quảng Trị, Vietnam"
  },
  "https://iipmap.com/cum-cong-nghiep-tan-chi-bac-ninh": {
    "match_name": "Bắc Ninh, Bắc Ninh, Vietnam",
    "confidence": 0.575397,
    "lng": 106.06527,
    "lat": 21.180523,
    "query": "CỤM CÔNG NGHIỆP TÂN CHI - BẮC NINH, xã Tân Chi, tỉnh Bắc Ninh, Vietnam"
  },
  "https://iipmap.com/khu-cong-nghiep-san-bay-tien-lang-khu-b-hai-phong": {
    "match_name": "Haiphong, Vietnam",
    "confidence": 0.32716,
    "lng": 106.674959,
    "lat": 20.858864,
    "query": "KHU CÔNG NGHIỆP SÂN BAY TIÊN LÃNG - KHU B - HẢI PHÒNG, xã Chấn Hưng, thành phố Hải Phòng,"
  },
  "https://iipmap.com/cum-cong-nghiep-quat-dong-2-ha-noi": {
    "match_name": "Hanoi, Vietnam",
    "confidence": 0.453704,
    "lng": 105.854444,
    "lat": 21.02945,
    "query": "CỤM CÔNG NGHIỆP QUẤT ĐỘNG 2 - HÀ NỘI, xã Thượng Phúc, thành phố Hà Nội, Vietnam"
  },
  "https://iipmap.com/cum-cong-nghiep-thi-tran-van-canh-binh-dinh": {
    "match_name": "Vân Canh, Bình Định, Vietnam",
    "confidence": 0.487329,
    "lng": 108.99547,
    "lat": 13.614929,
    "query": "CỤM CÔNG NGHIỆP THỊ TRẤN VÂN CANH - BÌNH ĐỊNH, Thị trấn Vân Canh, huyện Vân Canh, tỉnh Bình Định,"
  },
  "https://iipmap.com/cum-cong-nghiep-huong-son-bac-ninh": {
    "match_name": "Bắc Ninh, Bắc Ninh, Vietnam",
    "confidence": 0.587607,
    "lng": 106.06527,
    "lat": 21.180523,
    "query": "CỤM CÔNG NGHIỆP HƯƠNG SƠN - BẮC NINH, xã Kép, tỉnh Bắc Ninh, Vietnam"
  },
  "https://iipmap.com/khu-cong-nghiep-pho-phong-quang-ngai": {
    "match_name": "Quảng Ngãi, Quảng Ngãi, Vietnam",
    "confidence": 0.575397,
    "lng": 108.80173,
    "lat": 15.122847,
    "query": "KHU CÔNG NGHIỆP PHỔ PHONG - QUẢNG NGÃI, Xã Nguyễn Nghiêm, tỉnh Quảng Ngãi, Vietnam"
  },
  "https://iipmap.com/cum-cong-nghiep-hai-son-long-thuong-tay-ninh": {
    "match_name": "Tây Ninh, Tây Ninh, Vietnam",
    "confidence": 0.555556,
    "lng": 106.09091,
    "lat": 11.316238,
    "query": "CỤM CÔNG NGHIỆP HẢI SƠN - LONG THƯỢNG - TÂY NINH, xã Phước Lý, tỉnh Tây Ninh, Vietnam"
  },
  "https://iipmap.com/khu-cong-nghiep-vsip-nghe-an-nghe-an": {
    "match_name": "Hưng Nguyên, Nghệ An, Vietnam",
    "confidence": 0.564815,
    "lng": 105.62994,
    "lat": 18.671091,
    "query": "KHU CÔNG NGHIỆP VSIP NGHỆ AN - NGHỆ AN, Xã Hưng Công, huyện Hưng Nguyên, tỉnh Nghệ An, Vietnam"
  },
  "https://iipmap.com/cum-cong-nghiep-lac-son-nghe-an": {
    "match_name": "Đô Lương, Nghệ An, Vietnam",
    "confidence": 0.573529,
    "lng": 105.307594,
    "lat": 18.89792,
    "query": "CỤM CÔNG NGHIỆP LẠC SƠN - NGHỆ AN, Xã Lạc Sơn, huyện Đô Lương, tỉnh Nghệ An, Vietnam"
  },
  "https://iipmap.com/cum-cong-nghiep-tan-soi-bac-ninh": {
    "match_name": "Bắc Ninh, Bắc Ninh, Vietnam",
    "confidence": 0.575397,
    "lng": 106.06527,
    "lat": 21.180523,
    "query": "CỤM CÔNG NGHIỆP TÂN SỎI - BẮC NINH, xã Yên Thế, tỉnh Bắc Ninh, Vietnam"
  },
  "https://iipmap.com/khu-cong-nghiep-bai-tranh-thanh-hoa": {
    "match_name": "Như Xuân, Thanh Hóa, Vietnam",
    "confidence": 0.607143,
    "lng": 105.44608,
    "lat": 19.669436,
    "query": "KHU CÔNG NGHIỆP BÃI TRÀNH - THANH HÓA, Huyện Như Xuân, tỉnh Thanh Hóa, Vietnam"
  },
  "https://iipmap.com/khu-cong-nghiep-la-son-thua-thien-hue": {
    "match_name": "Phú Lộc, Huế, Vietnam",
    "confidence": 0.418129,
    "lng": 107.86065,
    "lat": 16.279934,
    "query": "KHU CÔNG NGHIỆP LA SƠN - THỪA THIÊN HUẾ, Thị trấn Lộc Sơn, huyện Phú Lộc, Tỉnh Thừa Thiên Huế,"
  },
  "https://iipmap.com/khu-cong-nghiep-nguyen-duc-canh-thai-binh": {
    "match_name": "Thái Bình, Thái Bình, Vietnam",
    "confidence": 0.489269,
    "lng": 106.3435,
    "lat": 20.44802,
    "query": "KHU CÔNG NGHIỆP NGUYỄN ĐỨC CẢNH – THÁI BÌNH, Xã Phú Xuân, phường Tiền Phong, thành phố Thái Bình, Vietnam"
  },
  "https://iipmap.com/khu-cong-nghiep-ham-kiem-1-binh-thuan": {
    "match_name": "Hàm Thuận Nam, Bình Thuận, Vietnam",
    "confidence": 0.611111,
    "lng": 107.86099,
    "lat": 10.841025,
    "query": "KHU CÔNG NGHIỆP HÀM KIỆM 1 - BÌNH THUẬN, Huyện Hàm Thuận Nam, tỉnh Bình Thuận, Vietnam"
  },
  "https://iipmap.com/khu-cong-nghiep-nhan-co-lam-dong": {},
  "https://iipmap.com/khu-cong-nghiep-hai-yen-quang-ninh": {
    "match_name": "Móng Cái, Quảng Ninh, Vietnam",
    "confidence": 0.589506,
    "lng": 107.97037,
    "lat": 21.527895,
    "query": "KHU CÔNG NGHIỆP HẢI YÊN - QUẢNG NINH, phường Hải Yên, thành phố Móng Cái, tỉnh Quảng Ninh, Vietnam"
  },
  "https://iipmap.com/khu-cong-nghiep-hoa-hoi-binh-dinh": {
    "match_name": "Phù Cát, Bình Định, Vietnam",
    "confidence": 0.607143,
    "lng": 109.05935,
    "lat": 14.000347,
    "query": "KHU CÔNG NGHIỆP HÒA HỘI - BÌNH ĐỊNH, Huyện Phù Cát, tỉnh Bình Định, Vietnam"
  },
  "https://iipmap.com/khu-cong-nghiep-ba-thien-ii-phu-tho": {
    "match_name": "Phú Thọ, Phú Thọ, Vietnam",
    "confidence": 0.564815,
    "lng": 105.222466,
    "lat": 21.400158,
    "query": "KHU CÔNG NGHIỆP BÁ THIỆN II - PHÚ THỌ, xã Bình Xuyên, tỉnh Phú Thọ, Vietnam"
  },
  "https://iipmap.com/cum-cong-nghiep-gia-thuan-2-dong-thap": {},
  "https://iipmap.com/cum-cong-nghiep-doi-hoa-son-gia-lai": {
    "match_name": "An Nhơn, Bình Định, Vietnam",
    "confidence": 0.366667,
    "lng": 109.113304,
    "lat": 13.886543,
    "query": "CỤM CÔNG NGHIỆP ĐỒI HỎA SƠN - GIA LAI, phường An Nhơn, tỉnh Gia Lai, Vietnam"
  },
  "https://iipmap.com/khu-cong-nghiep-tan-truong-mo-rong-hai-phong": {
    "match_name": "Haiphong, Vietnam",
    "confidence": 0.440546,
    "lng": 106.674959,
    "lat": 20.858864,
    "query": "KHU CÔNG NGHIỆP TÂN TRƯỜNG MỞ RỘNG - HẢI PHÒNG, xã Cẩm Định, huyện Cẩm Giàng, tỉnh Hải Phòng, Vietnam"
  },
  "https://iipmap.com/khu-cong-nghiep-hoa-xa-ninh-binh": {
    "match_name": "Ninh Bình, Ninh Bình, Vietnam",
    "confidence": 0.547386,
    "lng": 105.97167,
    "lat": 20.257044,
    "query": "KHU CÔNG NGHIỆP HÒA XÁ - NINH BÌNH, phường Thành Nam, phường Đông A, tỉnh Ninh Bình, Vietnam"
  },
  "https://iipmap.com/cum-cong-nghiep-lien-ha-2-ha-noi": {
    "match_name": "Hanoi, Vietnam",
    "confidence": 0.453704,
    "lng": 105.854444,
    "lat": 21.02945,
    "query": "CỤM CÔNG NGHIỆP LIÊN HÀ 2 - HÀ NỘI, xã Thư Lâm, thành phố Hà Nội, Vietnam"
  },
  "https://iipmap.com/khu-cong-nghiep-gia-le-thai-binh": {
    "match_name": "Đông Hưng, Thái Bình, Vietnam",
    "confidence": 0.564815,
    "lng": 106.35503,
    "lat": 20.556595,
    "query": "KHU CÔNG NGHIỆP GIA LỄ - THÁI BÌNH, Xã Đông Xuân, huyện Đông Hưng, thành phố Thái Bình, Vietnam"
  },
  "https://iipmap.com/khu-cong-nghiep-tay-bac-ho-xa-quang-tri": {
    "match_name": "Vĩnh Linh, Quảng Trị, Vietnam",
    "confidence": 0.583333,
    "lng": 107.005745,
    "lat": 17.07012,
    "query": "KHU CÔNG NGHIỆP TÂY BẮC HỒ XÁ - QUẢNG TRỊ, Huyện Vĩnh Linh, tỉnh Quảng Trị, Vietnam"
  },
  "https://iipmap.com/cum-cong-nghiep-giai-pham-hung-yen": {
    "match_name": "Hưng Yên, Hưng Yên, Vietnam",
    "confidence": 0.564815,
    "lng": 106.05815,
    "lat": 20.65831,
    "query": "CỤM CÔNG NGHIỆP GIAI PHẠM - HƯNG YÊN, xã Nguyễn Văn Linh, tỉnh Hưng Yên, Vietnam"
  },
  "https://iipmap.com/khu-cong-nghiep-deep-c-quang-ninh-ii-quang-ninh": {
    "match_name": "Quảng Yên, Quảng Ninh, Vietnam",
    "confidence": 0.589506,
    "lng": 106.79858,
    "lat": 20.938734,
    "query": "KHU CÔNG NGHIỆP DEEP C QUẢNG NINH II - QUẢNG NINH, Thị xã Quảng Yên, tỉnh Quảng Ninh, Vietnam"
  },
  "https://iipmap.com/cum-cong-nghiep-ho-dien-ha-noi": {
    "match_name": "Hanoi, Vietnam",
    "confidence": 0.459259,
    "lng": 105.854444,
    "lat": 21.02945,
    "query": "CỤM CÔNG NGHIỆP HỒ ĐIỀN - HÀ NỘI, xã Ô Diên, thành phố Hà Nội, Vietnam"
  },
  "https://iipmap.com/khu-cong-nghiep-hoa-phu-bac-ninh": {
    "match_name": "Bắc Ninh, Bắc Ninh, Vietnam",
    "confidence": 0.575397,
    "lng": 106.06527,
    "lat": 21.180523,
    "query": "KHU CÔNG NGHIỆP HÒA PHÚ - BẮC NINH, Huyện Hiệp Hòa, tỉnh Bắc Ninh, Vietnam"
  },
  "https://iipmap.com/khu-cong-nghiep-song-cong-ii-giai-doan-2-thai-nguyen": {
    "match_name": "Sông Công, Thái Nguyên, Vietnam",
    "confidence": 0.463938,
    "lng": 105.84525,
    "lat": 21.468815,
    "query": "KHU CÔNG NGHIỆP SÔNG CÔNG II GIAI ĐOẠN 2 - THÁI NGUYÊN, Xã Bá Xuyên và xã Tân Quang, thành"
  },
  "https://iipmap.com/khu-cong-nghiep-thach-quang-thanh-hoa": {
    "match_name": "Thạch Thành, Thanh Hóa, Vietnam",
    "confidence": 0.607143,
    "lng": 105.66934,
    "lat": 20.129307,
    "query": "KHU CÔNG NGHIỆP THẠCH QUẢNG - THANH HÓA, Huyện Thạch Thành, tỉnh Thanh Hóa, Vietnam"
  },
  "https://iipmap.com/cum-cong-nghiep-moc-chau-son-la": {
    "match_name": "Mộc Châu, Sơn La, Vietnam",
    "confidence": 0.714286,
    "lng": 104.61823,
    "lat": 20.854673,
    "query": "CỤM CÔNG NGHIỆP MỘC CHÂU - SƠN LA, Phường Vân Sơn, tỉnh Sơn La, Vietnam"
  },
  "https://iipmap.com/cum-cong-nghiep-nam-phuc-tho-ha-noi": {
    "match_name": "Hanoi, Vietnam",
    "confidence": 0.324561,
    "lng": 105.854444,
    "lat": 21.02945,
    "query": "CỤM CÔNG NGHIỆP NAM PHÚC THỌ - HÀ NỘI, xã Tam Hiệp và xã Ngọc Tảo, huyện Phúc Thọ, thành"
  },
  "https://iipmap.com/khu-cong-nghiep-xuan-que-song-nhan-dong-nai": {
    "match_name": "Cẩm Mỹ, Đồng Nai, Vietnam",
    "confidence": 0.583333,
    "lng": 107.34923,
    "lat": 10.762785,
    "query": "KHU CÔNG NGHIỆP XUÂN QUẾ - SÔNG NHẠN - ĐỒNG NAI, Huyện Cẩm Mỹ, tỉnh Đồng Nai, Vietnam"
  },
  "https://iipmap.com/khu-cong-nghiep-phu-vinh-ha-tinh": {
    "match_name": "Kỳ Anh, Hà Tĩnh, Vietnam",
    "confidence": 0.624074,
    "lng": 106.28914,
    "lat": 18.07527,
    "query": "KHU CÔNG NGHIỆP PHÚ VINH - HÀ TĨNH, Thị xã Kỳ Anh, tỉnh Hà Tĩnh, Vietnam"
  },
  "https://iipmap.com/khu-cong-nghiep-trung-ha-phu-tho": {
    "match_name": "Tam Nông, Phú Thọ, Vietnam",
    "confidence": 0.607143,
    "lng": 105.292244,
    "lat": 21.254494,
    "query": "KHU CÔNG NGHIỆP TRUNG HÀ - PHÚ THỌ, Huyện Tam Nông, tỉnh Phú Thọ, Vietnam"
  },
  "https://iipmap.com/cum-cong-nghiep-yen-lu-bac-ninh": {
    "match_name": "Bắc Ninh, Bắc Ninh, Vietnam",
    "confidence": 0.547386,
    "lng": 106.06527,
    "lat": 21.180523,
    "query": "CỤM CÔNG NGHIỆP YÊN LƯ - BẮC NINH, Xã Yên Lư, huyện Yên Dũng, tỉnh Bắc Ninh, Vietnam"
  },
  "https://iipmap.com/khu-cong-nghiep-dong-vang-thanh-hoa": {
    "match_name": "Nghi Sơn, Thanh Hóa, Vietnam",
    "confidence": 0.624074,
    "lng": 105.77842,
    "lat": 19.446516,
    "query": "KHU CÔNG NGHIỆP ĐỒNG VÀNG - THANH HÓA, Thị xã Nghi Sơn, tỉnh Thanh Hóa, Vietnam"
  },
  "https://iipmap.com/khu-cong-nghiep-thinh-phat-mo-rong-long-an": {
    "match_name": "Bến Lức, Long An, Vietnam",
    "confidence": 0.557018,
    "lng": 106.48561,
    "lat": 10.643214,
    "query": "KHU CÔNG NGHIỆP THỊNH PHÁT MỞ RỘNG - LONG AN, Xã Lương Bình, huyện Bến Lức, tỉnh Long An, Vietnam"
  },
  "https://iipmap.com/khu-cong-nghiep-an-phu-cua-khau-moc-bai-tay-ninh": {
    "match_name": "Bến Cầu, Tây Ninh, Vietnam",
    "confidence": 0.564815,
    "lng": 106.17956,
    "lat": 11.110908,
    "query": "KHU CÔNG NGHIỆP AN PHÚ - CỬA KHẨU MỘC BÀI - TÂY NINH, Huyện Bến Cầu, tỉnh Tây Ninh, Vietnam"
  },
  "https://iipmap.com/khu-cong-nghiep-chu-trinh-cao-bang": {
    "match_name": "Cao Bằng, Cao Bằng, Vietnam",
    "confidence": 0.575397,
    "lng": 106.25839,
    "lat": 22.665676,
    "query": "KHU CÔNG NGHIỆP CHU TRINH - CAO BẰNG, phường Tân Giang, tỉnh Cao Bằng, Vietnam"
  },
  "https://iipmap.com/khu-cong-nghiep-tac-cau-an-giang": {},
  "https://iipmap.com/cum-cong-nghiep-tien-hung-1-dong-nai": {},
  "https://iipmap.com/khu-cong-nghiep-chau-duc": {},
  "https://iipmap.com/khu-cong-nghiep-hoa-cam-da-nang": {
    "match_name": "Da Nang, Vietnam",
    "confidence": 0.459259,
    "lng": 108.212,
    "lat": 16.068,
    "query": "KHU CÔNG NGHIỆP HÒA CẦM - ĐÀ NẴNG, phường Sơn Trà, thành phố Đà Nẵng, Vietnam"
  },
  "https://iipmap.com/khu-cong-nghiep-phu-thi-ha-noi": {
    "match_name": "Hanoi, Vietnam",
    "confidence": 0.459259,
    "lng": 105.854444,
    "lat": 21.02945,
    "query": "KHU CÔNG NGHIỆP PHÚ THỊ - HÀ NỘI, xã Gia Lâm, thành phố Hà Nội, Vietnam"
  },
  "https://iipmap.com/khu-cong-nghiep-duc-hoa-iii-minh-ngan-tay-ninh": {
    "match_name": "Tây Ninh, Tây Ninh, Vietnam",
    "confidence": 0.32716,
    "lng": 106.09091,
    "lat": 11.316238,
    "query": "KHU CÔNG NGHIỆP ĐỨC HÒA III - MINH NGÂN - TÂY NINH, xã Đức Lập Hạ, huyện Đức Hòa, tỉnh"
  },
  "https://iipmap.com/khu-cong-nghiep-phu-nghia-ha-noi": {
    "match_name": "Hanoi, Vietnam",
    "confidence": 0.324561,
    "lng": 105.854444,
    "lat": 21.02945,
    "query": "KHU CÔNG NGHIỆP PHÚ NGHĨA - HÀ NỘI, thị trấn Trúc Sơn và thị trấn Xuân Mai, huyện Chương Mỹ,"
  },
  "https://iipmap.com/cum-cong-nghiep-dam-ha-quang-ninh": {
    "match_name": "Đầm Hà, Quảng Ninh, Vietnam",
    "confidence": 0.573529,
    "lng": 107.59613,
    "lat": 21.355024,
    "query": "CỤM CÔNG NGHIỆP ĐẦM HÀ – QUẢNG NINH, Xã Tân Bình, huyện Đầm Hà, tỉnh Quảng Ninh, Vietnam"
  },
  "https://iipmap.com/khu-cong-nghiep-son-my-1-binh-thuan": {
    "match_name": "Hàm Tân, Bình Thuận, Vietnam",
    "confidence": 0.594444,
    "lng": 107.63345,
    "lat": 10.842195,
    "query": "KHU CÔNG NGHIỆP SƠN MỸ 1 - BÌNH THUẬN, Huyện Hàm Tân, tỉnh Bình Thuận, Vietnam"
  },
  "https://iipmap.com/cum-cong-nghiep-quang-thanh-quang-ninh": {
    "match_name": "Hải Hà, Quảng Ninh, Vietnam",
    "confidence": 0.573529,
    "lng": 107.753746,
    "lat": 21.449364,
    "query": "CỤM CÔNG NGHIỆP QUẢNG THÀNH - QUẢNG NINH, xã Quảng Minh, huyện Hải Hà, tỉnh Quảng Ninh, Vietnam"
  },
  "https://iipmap.com/khu-cong-nghiep-khanh-phu-ninh-binh": {
    "match_name": "Yên Khánh, Ninh Bình, Vietnam",
    "confidence": 0.573529,
    "lng": 106.059944,
    "lat": 20.181799,
    "query": "KHU CÔNG NGHIỆP KHÁNH PHÚ - NINH BÌNH, Xã Khánh Phú, huyện Yên Khánh, tỉnh Ninh Bình, Vietnam"
  },
  "https://iipmap.com/khu-cong-nghiep-chuyen-nganh-co-khi-ho-chi-minh": {
    "match_name": "Ho Chi Minh City, Vietnam",
    "confidence": 0.347953,
    "lng": 106.701756,
    "lat": 10.775844,
    "query": "KHU CÔNG NGHIỆP CHUYÊN NGÀNH CƠ KHÍ - HỒ CHÍ MINH, phường Bình Cơ, phường Tân Uyên, thành phố Hồ"
  },
  "https://iipmap.com/cum-cong-nghiep-tam-lap-2-binh-duong": {
    "match_name": "Phú Giáo, Bình Dương, Vietnam",
    "confidence": 0.564815,
    "lng": 106.794395,
    "lat": 11.292644,
    "query": "CỤM CÔNG NGHIỆP TAM LẬP 2 - BÌNH DƯƠNG, xã Tam Lập, huyện Phú Giáo, tỉnh Bình Dương, Vietnam"
  },
  "https://iipmap.com/cum-cong-nghiep-soc-dang-phu-tho": {
    "match_name": "Đoan Hùng, Phú Thọ, Vietnam",
    "confidence": 0.573529,
    "lng": 105.17999,
    "lat": 21.644386,
    "query": "CỤM CÔNG NGHIỆP SÓC ĐĂNG - PHÚ THỌ, xã Sóc Đăng, huyện Đoan Hùng, tỉnh Phú Thọ, Vietnam"
  },
  "https://iipmap.com/cum-cong-nghiep-tam-da-dung-liet-1-bac-ninh": {
    "match_name": "Yên Phong, Bắc Ninh, Vietnam",
    "confidence": 0.459136,
    "lng": 105.95197,
    "lat": 21.19539,
    "query": "CỤM CÔNG NGHIỆP TAM ĐA - DŨNG LIỆT 1 - BẮC NINH, Xã Dũng Liệt, xã Tam Đa huyện Yên"
  },
  "https://iipmap.com/khu-cong-nghiep-tam-diep-2-ninh-binh": {
    "match_name": "Tam Điệp, Ninh Bình, Vietnam",
    "confidence": 0.611111,
    "lng": 105.91409,
    "lat": 20.15438,
    "query": "KHU CÔNG NGHIỆP TAM ĐIỆP 2 - NINH BÌNH, Thành phố Tam Điệp, tỉnh Ninh Bình, Vietnam"
  },
  "https://iipmap.com/cum-cong-nghiep-minh-lang-vu-thu-thai-binh": {
    "match_name": "Vũ Thư, Thái Bình, Vietnam",
    "confidence": 0.493827,
    "lng": 106.289925,
    "lat": 20.435686,
    "query": "CỤM CÔNG NGHIỆP MINH LÃNG - VŨ THƯ - THÁI BÌNH, xã Minh Lãng, huyện Vũ Thư, tỉnh Thái Bình,"
  },
  "https://iipmap.com/khu-cong-nghiep-an-ha-ho-chi-minh": {
    "match_name": "Ho Chi Minh City, Vietnam",
    "confidence": 0.514597,
    "lng": 106.701756,
    "lat": 10.775844,
    "query": "KHU CÔNG NGHIỆP AN HẠ - HỒ CHÍ MINH, xã Vĩnh Lộc, thành phố Hồ Chí Minh, Vietnam"
  },
  "https://iipmap.com/khu-cong-nghiep-quan-ngang-quang-tri": {
    "match_name": "Quảng Trị, Quảng Trị, Vietnam",
    "confidence": 0.575397,
    "lng": 107.18769,
    "lat": 16.746845,
    "query": "KHU CÔNG NGHIỆP QUÁN NGANG - QUẢNG TRỊ, xã Gio Linh, tỉnh Quảng Trị, Vietnam"
  },
  "https://iipmap.com/khu-cong-nghiep-phu-long-ninh-binh": {
    "match_name": "Nho Quan, Ninh Bình, Vietnam",
    "confidence": 0.573529,
    "lng": 105.752205,
    "lat": 20.32376,
    "query": "KHU CÔNG NGHIỆP PHÚ LONG - NINH BÌNH, Xã Phú Long, huyện Nho Quan, tỉnh Ninh Bình, Vietnam"
  },
  "https://iipmap.com/cum-cong-nghiep-doan-bai-bac-ninh": {
    "match_name": "Bắc Ninh, Bắc Ninh, Vietnam",
    "confidence": 0.547386,
    "lng": 106.06527,
    "lat": 21.180523,
    "query": "CỤM CÔNG NGHIỆP ĐOAN BÁI - BẮC NINH, Xã Đoan Bái, huyện Hiệp Hòa, tỉnh Bắc Ninh, Vietnam"
  },
  "https://iipmap.com/khu-cong-nghiep-thai-ha-ninh-binh": {
    "match_name": "Ninh Bình, Ninh Bình, Vietnam",
    "confidence": 0.575397,
    "lng": 105.97167,
    "lat": 20.257044,
    "query": "KHU CÔNG NGHIỆP THÁI HÀ - NINH BÌNH, Huyện Lý Nhân, tỉnh Ninh Bình, Vietnam"
  },
  "https://iipmap.com/khu-cong-nghiep-thaco-thai-binh-thai-binh": {
    "match_name": "Quỳnh Phụ, Thái Bình, Vietnam",
    "confidence": 0.564815,
    "lng": 106.32499,
    "lat": 20.656372,
    "query": "KHU CÔNG NGHIỆP THACO - THÁI BÌNH - THÁI BÌNH, xã An Cầu, huyện Quỳnh Phụ, tỉnh Thái Bình, Vietnam"
  },
  "https://iipmap.com/cum-cong-nghiep-tan-vinh-phu-tho": {
    "match_name": "Phú Thọ, Phú Thọ, Vietnam",
    "confidence": 0.575397,
    "lng": 105.222466,
    "lat": 21.400158,
    "query": "CỤM CÔNG NGHIỆP TÂN VINH – PHÚ THỌ, xã Lương Sơn, tỉnh Phú Thọ, Vietnam"
  },
  "https://iipmap.com/khu-cong-nghiep-hoa-khanh-da-nang": {
    "match_name": "Da Nang, Vietnam",
    "confidence": 0.459259,
    "lng": 108.212,
    "lat": 16.068,
    "query": "KHU CÔNG NGHIỆP HÒA KHÁNH - ĐÀ NẴNG, phường Hòa Khánh, thành phố Đà Nẵng, Vietnam"
  },
  "https://iipmap.com/khu-cong-nghiep-tay-bac-quan-hau-quang-tri": {
    "match_name": "Quảng Trị, Quảng Trị, Vietnam",
    "confidence": 0.555556,
    "lng": 107.18769,
    "lat": 16.746845,
    "query": "KHU CÔNG NGHIỆP TÂY BẮC QUÁN HÀU - QUẢNG TRỊ, xã Quảng Ninh, tỉnh Quảng Trị, Vietnam"
  },
  "https://iipmap.com/khu-cong-nghiep-thang-long-ha-noi": {
    "match_name": "Hanoi, Vietnam",
    "confidence": 0.448802,
    "lng": 105.854444,
    "lat": 21.02945,
    "query": "KHU CÔNG NGHIỆP THĂNG LONG - HÀ NỘI, Hải Bối, huyện Đông Anh, thành phố Hà Nội, Vietnam"
  },
  "https://iipmap.com/cum-cong-nghiep-hoanh-bo-quang-ninh": {
    "match_name": "Thống Nhất, Đồng Nai, Vietnam",
    "confidence": 0.465608,
    "lng": 107.14018,
    "lat": 10.942836,
    "query": "CỤM CÔNG NGHIỆP HOÀNH BỒ - QUẢNG NINH, xã Thống Nhất, tỉnh Quảng Ninh, Vietnam"
  },
  "https://iipmap.com/khu-cong-nghiep-deep-c-quang-ninh": {
    "match_name": "Quảng Yên, Quảng Ninh, Vietnam",
    "confidence": 0.624074,
    "lng": 106.79858,
    "lat": 20.938734,
    "query": "KHU CÔNG NGHIỆP DEEP C - QUẢNG NINH, Thị xã Quảng Yên, tỉnh Quảng Ninh, Vietnam"
  },
  "https://iipmap.com/khu-cong-nghiep-wha-smart-technology-2-thanh-hoa": {
    "match_name": "Thiệu Hóa, Thanh Hóa, Vietnam",
    "confidence": 0.477329,
    "lng": 105.67842,
    "lat": 19.891594,
    "query": "KHU CÔNG NGHIỆP WHA SMART TECHNOLOGY 2 – THANH HÓA, Thiệu Thịnh và Thiệu Hợp, huyện Thiệu Hóa, tỉnh Thanh"
  },
  "https://iipmap.com/khu-cong-nghiep-binh-xuyen-phu-tho": {
    "match_name": "Phú Thọ, Phú Thọ, Vietnam",
    "confidence": 0.547386,
    "lng": 105.222466,
    "lat": 21.400158,
    "query": "KHU CÔNG NGHIỆP BÌNH XUYÊN - PHÚ THỌ, xã Bình Nguyên, xã Xuân Lãng, tỉnh Phú Thọ, Vietnam"
  },
  "https://iipmap.com/khu-cong-nghiep-quyet-thang-thai-nguyen": {
    "match_name": "Thái Nguyên, Thái Nguyên, Vietnam",
    "confidence": 0.589506,
    "lng": 105.834206,
    "lat": 21.59228,
    "query": "KHU CÔNG NGHIỆP QUYẾT THẮNG - THÁI NGUYÊN, xã Quyết Thắng, thành phố Thái Nguyên, tỉnh Thái Nguyên, Vietnam"
  },
  "https://iipmap.com/cum-cong-nghiep-doi-ngo-bac-ninh": {
    "match_name": "Bắc Ninh, Bắc Ninh, Vietnam",
    "confidence": 0.575397,
    "lng": 106.06527,
    "lat": 21.180523,
    "query": "CỤM CÔNG NGHIỆP ĐỒI NGÔ - BẮC NINH, xã Lục Nam, tỉnh Bắc Ninh, Vietnam"
  },
  "https://iipmap.com/khu-cong-nghiep-song-khe-noi-hoang-bac-ninh": {
    "match_name": "Bắc Ninh, Bắc Ninh, Vietnam",
    "confidence": 0.469136,
    "lng": 106.06527,
    "lat": 21.180523,
    "query": "KHU CÔNG NGHIỆP SONG KHÊ - NỘI HOÀNG - BẮC NINH, Xã Nội Hoàng, huyện Yên Dũng, tỉnh Bắc Ninh,"
  },
  "https://iipmap.com/khu-cong-nghiep-phuoc-binh-2-dong-nai": {
    "match_name": "Long Thành, Đồng Nai, Vietnam",
    "confidence": 0.477329,
    "lng": 106.95096,
    "lat": 10.782615,
    "query": "KHU CÔNG NGHIỆP PHƯỚC BÌNH 2 - ĐỒNG NAI, Xã Phước Bình và xã Tân Hiệp, huyện Long Thành, tỉnh"
  },
  "https://iipmap.com/cum-cong-nghiep-kim-binh-ninh-binh": {
    "match_name": "Ninh Bình, Ninh Bình, Vietnam",
    "confidence": 0.540123,
    "lng": 105.97167,
    "lat": 20.257044,
    "query": "CỤM CÔNG NGHIỆP KIM BÌNH - NINH BÌNH, xã Kim Bình, thành phố Phủ Lý, tỉnh Ninh Bình, Vietnam"
  },
  "https://iipmap.com/khu-cong-nghiep-tay-pho-yen-thai-nguyen": {
    "match_name": "Phổ Yên, Thái Nguyên, Vietnam",
    "confidence": 0.580409,
    "lng": 105.871735,
    "lat": 21.419365,
    "query": "KHU CÔNG NGHIỆP TÂY PHỔ YÊN - THÁI NGUYÊN, xã Vạn Phái, thành phố Phổ Yên, tỉnh Thái Nguyên, Vietnam"
  },
  "https://iipmap.com/cum-cong-nghiep-lac-ve-bac-ninh": {
    "match_name": "Tiên Du, Bắc Ninh, Vietnam",
    "confidence": 0.573529,
    "lng": 106.0171,
    "lat": 21.141943,
    "query": "CỤM CÔNG NGHIỆP LẠC VỆ - BẮC NINH, xã Lạc Vệ, huyện Tiên Du, tỉnh Bắc Ninh, Vietnam"
  },
  "https://iipmap.com/khu-cong-nghiep-amata-song-khoai": {
    "match_name": "Quảng Yên, Quảng Ninh, Vietnam",
    "confidence": 0.638889,
    "lng": 106.79858,
    "lat": 20.938734,
    "query": "KHU CÔNG NGHIỆP AMATA SÔNG KHOAI, Thị xã Quảng Yên, tỉnh Quảng Ninh, Vietnam"
  },
  "https://iipmap.com/khu-cong-nghiep-duc-hoa-iii-lien-thanh-tay-ninh": {
    "match_name": "Tây Ninh, Tây Ninh, Vietnam",
    "confidence": 0.32716,
    "lng": 106.09091,
    "lat": 11.316238,
    "query": "KHU CÔNG NGHIỆP ĐỨC HÒA III - LIÊN THÀNH - TÂY NINH, xã Mỹ Hạnh Bắc, huyện Đức Hòa, tỉnh"
  },
  "https://iipmap.com/cum-cong-nghiep-gia-lap-ninh-binh": {
    "match_name": "Gia Viễn, Ninh Bình, Vietnam",
    "confidence": 0.573529,
    "lng": 105.83616,
    "lat": 20.345379,
    "query": "CỤM CÔNG NGHIỆP GIA LẬP - NINH BÌNH, xã Gia Lập, huyện Gia Viễn, tỉnh Ninh Bình, Vietnam"
  },
  "https://iipmap.com/khu-cong-nghiep-an-nhut-tan-long-an": {
    "match_name": "Tân Trụ, Long An, Vietnam",
    "confidence": 0.557018,
    "lng": 106.508,
    "lat": 10.513552,
    "query": "KHU CÔNG NGHIỆP AN NHỰT TÂN - LONG AN, Xã An Nhựt Tân, huyện Tân Trụ, tỉnh Long An, Vietnam"
  },
  "https://iipmap.com/cum-cong-nghiep-khanh-thanh-ninh-binh": {
    "match_name": "Ninh Bình, Ninh Bình, Vietnam",
    "confidence": 0.575397,
    "lng": 105.97167,
    "lat": 20.257044,
    "query": "CỤM CÔNG NGHIỆP KHÁNH THÀNH - NINH BÌNH, xã Khánh Trung, tỉnh Ninh Bình, Vietnam"
  },
  "https://iipmap.com/cum-cong-nghiep-nguyen-khe-ha-noi": {
    "match_name": "Hanoi, Vietnam",
    "confidence": 0.459259,
    "lng": 105.854444,
    "lat": 21.02945,
    "query": "CỤM CÔNG NGHIỆP NGUYÊN KHÊ - HÀ NỘI, xã Thư Lâm, thành phố Hà Nội, Vietnam"
  },
  "https://iipmap.com/khu-cong-nghiep-binh-minh-vinh-long": {
    "match_name": "Bình Minh, Vĩnh Long, Vietnam",
    "confidence": 0.728395,
    "lng": 105.813835,
    "lat": 10.068787,
    "query": "KHU CÔNG NGHIỆP BÌNH MINH - VĨNH LONG, xã Mỹ Hòa, thị xã Bình Minh, tỉnh Vĩnh Long, Vietnam"
  },
  "https://iipmap.com/khu-cong-nghiep-duc-hoa-iii-song-tan-tay-ninh": {
    "match_name": "Tây Ninh, Tây Ninh, Vietnam",
    "confidence": 0.32716,
    "lng": 106.09091,
    "lat": 11.316238,
    "query": "KHU CÔNG NGHIỆP ĐỨC HÒA III - SONG TÂN - TÂY NINH, xã Đức Lập Hạ, huyện Đức Hòa, tỉnh"
  },
  "https://iipmap.com/khu-cong-nghiep-thach-that-quoc-oai-ha-noi": {
    "match_name": "Hanoi, Vietnam",
    "confidence": 0.32716,
    "lng": 105.854444,
    "lat": 21.02945,
    "query": "KHU CÔNG NGHIỆP THẠCH THẤT - QUỐC OAI - HÀ NỘI, Thị trấn Quốc Oai và xã Phùng Xá, huyện"
  },
  "https://iipmap.com/khu-cong-nghiep-phong-phu-ho-chi-minh": {
    "match_name": "Ho Chi Minh City, Vietnam",
    "confidence": 0.514597,
    "lng": 106.701756,
    "lat": 10.775844,
    "query": "KHU CÔNG NGHIỆP PHONG PHÚ - HỒ CHÍ MINH, xã Bình Hưng, thành phố Hồ Chí Minh, Vietnam"
  },
  "https://iipmap.com/cum-cong-nghiep-hop-thang-thanh-hoa": {
    "match_name": "Triệu Sơn, Thanh Hóa, Vietnam",
    "confidence": 0.573529,
    "lng": 105.59006,
    "lat": 19.821802,
    "query": "CỤM CÔNG NGHIỆP HỢP THẮNG – THANH HÓA, xã Vân Sơn, huyện Triệu Sơn, tỉnh Thanh Hóa, Vietnam"
  },
  "https://iipmap.com/cum-cong-nghiep-go-cay-gia-lai": {},
  "https://iipmap.com/khu-cong-nghiep-quoc-te-protrade-binh-duong": {
    "match_name": "Bến Cát, Bình Dương, Vietnam",
    "confidence": 0.611111,
    "lng": 106.60737,
    "lat": 11.132001,
    "query": "KHU CÔNG NGHIỆP QUỐC TẾ PROTRADE – BÌNH DƯƠNG, Thị xã Bến Cát, tỉnh Bình Dương, Vietnam"
  },
  "https://iipmap.com/khu-cong-nghiep-bau-xeo-dong-nai": {
    "match_name": "Trảng Bom, Đồng Nai, Vietnam",
    "confidence": 0.607143,
    "lng": 107.00117,
    "lat": 10.951957,
    "query": "KHU CÔNG NGHIỆP BÀU XÉO - ĐỒNG NAI, Huyện Trảng Bom, tỉnh Đồng Nai, Vietnam"
  },
  "https://iipmap.com/khu-cong-nghiep-vsip-bac-ninh": {
    "match_name": "Từ Sơn, Bắc Ninh, Vietnam",
    "confidence": 0.555556,
    "lng": 105.96385,
    "lat": 21.120253,
    "query": "KHU CÔNG NGHIỆP VSIP - BẮC NINH, phường Từ Sơn, xã Đại Đồng, tỉnh Bắc Ninh, Vietnam"
  },
  "https://iipmap.com/cum-cong-nghiep-trung-luong-ha-nam": {
    "match_name": "Ninh Bình, Ninh Bình, Vietnam",
    "confidence": 0.373016,
    "lng": 105.97167,
    "lat": 20.257044,
    "query": "CỤM CÔNG NGHIỆP TRUNG LƯƠNG - HÀ NAM, xã Bình An, tỉnh Ninh Bình, Vietnam"
  },
  "https://iipmap.com/cum-cong-nghiep-hoa-son-i-lang-son": {
    "match_name": "Hữu Lũng, Lạng Sơn, Vietnam",
    "confidence": 0.564815,
    "lng": 106.344055,
    "lat": 21.50598,
    "query": "CỤM CÔNG NGHIỆP HÒA SƠN I - LẠNG SƠN, xã Hòa Sơn, huyện Hữu Lũng, tỉnh Lạng Sơn, Vietnam"
  },
  "https://iipmap.com/khu-cong-nghiep-tay-bac-dong-hoi-quang-tri": {
    "match_name": "Quảng Trị, Quảng Trị, Vietnam",
    "confidence": 0.555556,
    "lng": 107.18769,
    "lat": 16.746845,
    "query": "KHU CÔNG NGHIỆP TÂY BẮC ĐỒNG HỚI - QUẢNG TRỊ, phường Đồng Thuận, tỉnh Quảng Trị, Vietnam"
  },
  "https://iipmap.com/kcn-cong-nghe-cao-long-thanh-dong-nai": {
    "match_name": "Long Thành, Đồng Nai, Vietnam",
    "confidence": 0.594444,
    "lng": 106.95096,
    "lat": 10.782615,
    "query": "KCN CÔNG NGHỆ CAO LONG THÀNH - ĐỒNG NAI, Huyện Long Thành, tỉnh Đồng Nai, Vietnam"
  },
  "https://iipmap.com/cum-cong-nghiep-phu-thinh-3-yen-bai": {
    "match_name": "Yên Bình, Yên Bái, Vietnam",
    "confidence": 0.564815,
    "lng": 104.961205,
    "lat": 21.729658,
    "query": "CỤM CÔNG NGHIỆP PHÚ THỊNH 3 - YÊN BÁI, xã Thịnh Hưng, huyện Yên Bình, tỉnh Yên Bái, Vietnam"
  },
  "https://iipmap.com/khu-cong-nghiep-tu-ha-thua-thien-hue": {
    "match_name": "Huế, Huế, Vietnam",
    "confidence": 0.529815,
    "lng": 107.594864,
    "lat": 16.463463,
    "query": "KHU CÔNG NGHIỆP TỨ HẠ - THỪA THIÊN HUẾ, phường Hương Trà, thành phố Huế, Vietnam"
  },
  "https://iipmap.com/cum-cong-nghiep-dong-phi-phu-tho": {
    "match_name": "Hạ Hoà, Phú Thọ, Vietnam",
    "confidence": 0.573529,
    "lng": 105.00473,
    "lat": 21.562366,
    "query": "CỤM CÔNG NGHIỆP ĐỒNG PHÌ - PHÚ THỌ, Xã Xuân Áng, huyện Hạ Hòa, tỉnh Phú Thọ, Vietnam"
  },
  "https://iipmap.com/khu-cong-nghiep-tam-diep-i-ninh-binh": {
    "match_name": "Tam Điệp, Ninh Bình, Vietnam",
    "confidence": 0.580409,
    "lng": 105.91409,
    "lat": 20.15438,
    "query": "KHU CÔNG NGHIỆP TAM ĐIỆP I - NINH BÌNH, phường Tây Sơn, thành phố Tam Điệp, tỉnh Ninh Bình, Vietnam"
  },
  "https://iipmap.com/cum-cong-nghiep-thong-nhat-thai-binh": {
    "match_name": "Hưng Hà, Thái Bình, Vietnam",
    "confidence": 0.573529,
    "lng": 106.22408,
    "lat": 20.590263,
    "query": "CỤM CÔNG NGHIỆP THỐNG NHẤT - THÁI BÌNH, xã Thống Nhất, huyện Hưng Hà, tỉnh Thái Bình, Vietnam"
  },
  "https://iipmap.com/cum-cong-nghiep-nghia-an-hai-phong": {
    "match_name": "Haiphong, Vietnam",
    "confidence": 0.444444,
    "lng": 106.674959,
    "lat": 20.858864,
    "query": "CỤM CÔNG NGHIỆP NGHĨA AN - HẢI PHÒNG, Xã Nghĩa An, huyện Ninh Giang, thành phố Hải Phòng, Vietnam"
  },
  "https://iipmap.com/khu-cong-nghiep-viet-phat": {
    "match_name": "Thủ Thừa, Long An, Vietnam",
    "confidence": 0.594444,
    "lng": 106.4023,
    "lat": 10.601935,
    "query": "KHU CÔNG NGHIỆP VIỆT PHÁT, Xã Tân Lập, huyện Thủ Thừa, tỉnh Long An, Vietnam"
  },
  "https://iipmap.com/khu-cong-nghiep-an-viet-que-vo-6-bac-ninh": {
    "match_name": "Quế Võ, Bắc Ninh, Vietnam",
    "confidence": 0.469136,
    "lng": 106.14906,
    "lat": 21.15372,
    "query": "KHU CÔNG NGHIỆP AN VIỆT - QUẾ VÕ 6 - BẮC NINH, phường Quế Võ, phường Đào Viên, tỉnh Bắc"
  },
  "https://iipmap.com/cum-cong-nghiep-bao-ly-xuan-phuong-thai-nguyen": {
    "match_name": "Phú Bình, Thái Nguyên, Vietnam",
    "confidence": 0.493827,
    "lng": 105.97898,
    "lat": 21.461441,
    "query": "CỤM CÔNG NGHIỆP BẢO LÝ - XUÂN PHƯƠNG - THÁI NGUYÊN, xã Nga My, huyện Phú Bình, tỉnh Thái Nguyên,"
  },
  "https://iipmap.com/khu-cong-nghiep-dich-vu-thuy-san-da-nang-da-nang": {
    "match_name": "Da Nang, Vietnam",
    "confidence": 0.440546,
    "lng": 108.212,
    "lat": 16.068,
    "query": "KHU CÔNG NGHIỆP DỊCH VỤ THỦY SẢN ĐÀ NẴNG – ĐÀ NẴNG, phường Sơn Trà, thành phố Đà Nẵng, Vietnam"
  },
  "https://iipmap.com/khu-cong-nghiep-long-khanh-dong-nai": {
    "match_name": "Long Khánh, Đồng Nai, Vietnam",
    "confidence": 0.564815,
    "lng": 107.243965,
    "lat": 10.931764,
    "query": "KHU CÔNG NGHIỆP LONG KHÁNH - ĐỒNG NAI, Thị xã Long Khánh, tỉnh Đồng Nai, Vietnam"
  },
  "https://iipmap.com/cum-cong-nghiep-cai-tau-ha-an-nhon-dong-thap": {
    "match_name": "An Nhơn, Bình Định, Vietnam",
    "confidence": 0.32716,
    "lng": 109.113304,
    "lat": 13.886543,
    "query": "CỤM CÔNG NGHIỆP CÁI TÀU HẠ AN NHƠN - ĐỒNG THÁP, Thị trấn Cái Tàu Hạ - An Nhơn, huyện"
  },
  "https://iipmap.com/khu-cong-nghiep-an-nghiep-can-tho": {
    "match_name": "Cần Thơ, Vietnam",
    "confidence": 0.459259,
    "lng": 105.787522,
    "lat": 10.036422,
    "query": "KHU CÔNG NGHIỆP AN NGHIỆP – CẦN THƠ, xã An Ninh, thành phố Cần Thơ, Vietnam"
  },
  "https://iipmap.com/cum-cong-nghiep-van-du-thanh-hoa": {
    "match_name": "Thạch Thành, Thanh Hóa, Vietnam",
    "confidence": 0.573529,
    "lng": 105.66934,
    "lat": 20.129307,
    "query": "CỤM CÔNG NGHIỆP VÂN DU - THANH HÓA, xã Đồng Tâm, huyện Thạch Thành, tỉnh Thanh Hóa, Vietnam"
  },
  "https://iipmap.com/cum-cong-nghiep-tan-duong-thai-nguyen": {
    "match_name": "Định Hóa, Thái Nguyên, Vietnam",
    "confidence": 0.573529,
    "lng": 105.64145,
    "lat": 21.905153,
    "query": "CỤM CÔNG NGHIỆP TÂN DƯƠNG - THÁI NGUYÊN, xã Tân Dương, huyện Định Hóa, tỉnh Thái Nguyên, Vietnam"
  },
  "https://iipmap.com/khu-cong-nghiep-song-lo-1-vinh-phuc": {
    "match_name": "Sông Lô, Vĩnh Phúc, Vietnam",
    "confidence": 0.564815,
    "lng": 105.40388,
    "lat": 21.418333,
    "query": "KHU CÔNG NGHIỆP SÔNG LÔ 1 - VĨNH PHÚC, Xã Tứ Yên, huyện Sông Lô, tỉnh Vĩnh Phúc, Vietnam"
  },
  "https://iipmap.com/khu-cong-nghiep-thuan-yen-kien-giang": {
    "match_name": "Hà Tiên, Kiên Giang, Vietnam",
    "confidence": 0.564815,
    "lng": 104.48751,
    "lat": 10.382317,
    "query": "KHU CÔNG NGHIỆP THUẬN YÊN - KIÊN GIANG, Thị xã Hà Tiên, tỉnh Kiên Giang, Vietnam"
  },
  "https://iipmap.com/cum-cong-nghiep-phu-tro-trang-due-hai-phong": {
    "match_name": "Haiphong, Vietnam",
    "confidence": 0.324561,
    "lng": 106.674959,
    "lat": 20.858864,
    "query": "CỤM CÔNG NGHIỆP PHỤ TRỢ TRÀNG DUỆ - HẢI PHÒNG, xã An Hòa, huyện An Dương, thành phố Hải Phòng,"
  },
  "https://iipmap.com/cum-cong-nghiep-quan-chu-thai-nguyen": {
    "match_name": "Đại Từ, Thái Nguyên, Vietnam",
    "confidence": 0.564815,
    "lng": 105.64119,
    "lat": 21.631485,
    "query": "CỤM CÔNG NGHIỆP QUÂN CHU - THÁI NGUYÊN, Thị trấn Quân Chu, huyện Đại Từ, tỉnh Thái Nguyên, Vietnam"
  },
  "https://iipmap.com/cum-cong-nghiep-tam-lap-binh-duong": {
    "match_name": "Phú Giáo, Bình Dương, Vietnam",
    "confidence": 0.573529,
    "lng": 106.794395,
    "lat": 11.292644,
    "query": "CỤM CÔNG NGHIỆP TAM LẬP - BÌNH DƯƠNG, xã Tam Lập, huyện Phú Giáo, tỉnh Bình Dương, Vietnam"
  },
  "https://iipmap.com/cum-cong-nghiep-quang-chau-bac-ninh": {
    "match_name": "Bắc Ninh, Bắc Ninh, Vietnam",
    "confidence": 0.555556,
    "lng": 106.06527,
    "lat": 21.180523,
    "query": "CỤM CÔNG NGHIỆP QUANG CHÂU - BẮC NINH, phường Nếnh, phường Vân Hà, tỉnh Bắc Ninh, Vietnam"
  },
  "https://iipmap.com/cum-cong-nghiep-hong-ha-ha-noi": {
    "match_name": "Hanoi, Vietnam",
    "confidence": 0.459259,
    "lng": 105.854444,
    "lat": 21.02945,
    "query": "CỤM CÔNG NGHIỆP HỒNG HÀ - HÀ NỘI, xã Ô Diên, thành phố Hà Nội, Vietnam"
  },
  "https://iipmap.com/cum-cong-nghiep-cau-16-mo-rong-binh-dinh": {
    "match_name": "Tây Sơn, Bình Định, Vietnam",
    "confidence": 0.557018,
    "lng": 108.91855,
    "lat": 13.909152,
    "query": "CỤM CÔNG NGHIỆP CẦU 16 MỞ RỘNG - BÌNH ĐỊNH, Xã Tây Thuận, huyện Tây Sơn, tỉnh Bình Định, Vietnam"
  },
  "https://iipmap.com/khu-cong-nghe-cao-hoa-lac-ha-noi": {
    "match_name": "Nha Trang, Khánh Hòa, Vietnam",
    "confidence": 0.324561,
    "lng": 109.18859,
    "lat": 12.241498,
    "query": "KHU CÔNG NGHỆ CAO HÒA LẠC - HÀ NỘI, Km 29 Đại Lộ Thăng Long, huyện Thạch Thất, thành phố"
  },
  "https://iipmap.com/khu-cong-nghiep-song-dinh-nghe-an": {
    "match_name": "Quỳ Hợp, Nghệ An, Vietnam",
    "confidence": 0.573529,
    "lng": 105.18206,
    "lat": 19.32001,
    "query": "KHU CÔNG NGHIỆP SÔNG DINH - NGHỆ AN, xã Minh Hợp, huyện Quỳ Hợp, tỉnh Nghệ An, Vietnam"
  },
  "https://iipmap.com/khu-cong-nghiep-do-son-hai-phong": {
    "match_name": "Haiphong, Vietnam",
    "confidence": 0.444444,
    "lng": 106.674959,
    "lat": 20.858864,
    "query": "KHU CÔNG NGHIỆP ĐỒ SƠN - HẢI PHÒNG, Phường Ngọc Xuyên, quận Đồ Sơn, thành phố Hải Phòng, Vietnam"
  },
  "https://iipmap.com/khu-cong-nghiep-tan-duc-binh-thuan": {
    "match_name": "Hàm Tân, Bình Thuận, Vietnam",
    "confidence": 0.607143,
    "lng": 107.63345,
    "lat": 10.842195,
    "query": "KHU CÔNG NGHIỆP TÂN ĐỨC - BÌNH THUẬN, Huyện Hàm Tân, tỉnh Bình Thuận, Vietnam"
  },
  "https://iipmap.com/khu-cong-nghiep-thu-thua-tay-ninh": {
    "match_name": "Tây Ninh, Tây Ninh, Vietnam",
    "confidence": 0.575397,
    "lng": 106.09091,
    "lat": 11.316238,
    "query": "KHU CÔNG NGHIỆP THỦ THỪA - TÂY NINH, xã Thủ Thừa, tỉnh Tây Ninh, Vietnam"
  },
  "https://iipmap.com/cum-cong-nghiep-nghia-huong-ha-noi": {
    "match_name": "Hanoi, Vietnam",
    "confidence": 0.459259,
    "lng": 105.854444,
    "lat": 21.02945,
    "query": "CỤM CÔNG NGHIỆP NGHĨA HƯƠNG - HÀ NỘI, xã Kiều Phú, thành phố Hà Nội, Vietnam"
  },
  "https://iipmap.com/khu-cong-nghiep-dai-an-mo-rong-hai-phong": {
    "match_name": "Haiphong, Vietnam",
    "confidence": 0.448802,
    "lng": 106.674959,
    "lat": 20.858864,
    "query": "KHU CÔNG NGHIỆP ĐẠI AN MỞ RỘNG - HẢI PHÒNG, Huyện Cẩm Giàng, thành phố Hải Phòng, Vietnam"
  },
  "https://iipmap.com/cum-cong-nghiep-lam-hop-ha-tinh": {
    "match_name": "Hà Tĩnh, Hà Tĩnh, Vietnam",
    "confidence": 0.575397,
    "lng": 105.89749,
    "lat": 18.341745,
    "query": "CỤM CÔNG NGHIỆP LÂM HỢP - HÀ TĨNH, xã Kỳ Lạc, tỉnh Hà Tĩnh, Vietnam"
  },
  "https://iipmap.com/khu-cong-nghiep-song-tra-thai-binh": {
    "match_name": "Thái Bình, Thái Bình, Vietnam",
    "confidence": 0.589506,
    "lng": 106.3435,
    "lat": 20.44802,
    "query": "KHU CÔNG NGHIỆP SÔNG TRÀ - THÁI BÌNH, xã Tân Bình, thành phố Thái Bình, tỉnh Thái Bình, Vietnam"
  },
  "https://iipmap.com/cum-cong-nghiep-dak-la-quang-ngai": {
    "match_name": "Quảng Ngãi, Quảng Ngãi, Vietnam",
    "confidence": 0.575397,
    "lng": 108.80173,
    "lat": 15.122847,
    "query": "CỤM CÔNG NGHIỆP ĐĂK LA - QUẢNG NGÃI, xã Đăk Hà, tỉnh Quảng Ngãi, Vietnam"
  },
  "https://iipmap.com/khu-cong-nghiep-dat-cuoc-ho-chi-minh": {
    "match_name": "Ho Chi Minh City, Vietnam",
    "confidence": 0.506173,
    "lng": 106.701756,
    "lat": 10.775844,
    "query": "KHU CÔNG NGHIỆP ĐẤT CUỐC - HỒ CHÍ MINH, xã Bắc Tân Uyên, thành phố Hồ Chí Minh, Vietnam"
  },
  "https://iipmap.com/cum-cong-nghiep-lang-nghe-xuan-thu-ha-noi": {
    "match_name": "Hanoi, Vietnam",
    "confidence": 0.324561,
    "lng": 105.854444,
    "lat": 21.02945,
    "query": "CỤM CÔNG NGHIỆP LÀNG NGHỀ XUÂN THU - HÀ NỘI, Xã Xuân Thu, huyện Sóc Sơn, thành phố Hà Nội,"
  },
  "https://iipmap.com/khu-cong-nghiep-deep-c-hai-phong-iii": {
    "match_name": "Haiphong, Vietnam",
    "confidence": 0.437037,
    "lng": 106.674959,
    "lat": 20.858864,
    "query": "KHU CÔNG NGHIỆP DEEP C HẢI PHÒNG III, Thị trấn Cát Hải, huyện Cát Hải, thành phố Hải Phòng, Vietnam"
  },
  "https://iipmap.com/cum-cong-nghiep-phuoc-minh-3-khanh-hoa": {
    "match_name": "Thuận Nam, Ninh Thuận, Vietnam",
    "confidence": 0.366667,
    "lng": 108.88981,
    "lat": 11.338802,
    "query": "CỤM CÔNG NGHIỆP PHƯỚC MINH 3 - KHÁNH HÒA, xã Thuận Nam, tỉnh Khánh Hòa, Vietnam"
  },
  "https://iipmap.com/khu-cong-nghiep-dong-nam-ho-chi-minh": {
    "match_name": "Ho Chi Minh City, Vietnam",
    "confidence": 0.514597,
    "lng": 106.701756,
    "lat": 10.775844,
    "query": "KHU CÔNG NGHIỆP ĐÔNG NAM – HỒ CHÍ MINH, xã Bình Mỹ, thành phố Hồ Chí Minh, Vietnam"
  },
  "https://iipmap.com/khu-cong-nghiep-phuoc-vinh-dong-tay-ninh": {
    "match_name": "Tây Ninh, Tây Ninh, Vietnam",
    "confidence": 0.564815,
    "lng": 106.09091,
    "lat": 11.316238,
    "query": "KHU CÔNG NGHIỆP PHƯỚC VĨNH ĐÔNG – TÂY NINH, xã Tân Tập, tỉnh Tây Ninh, Vietnam"
  },
  "https://iipmap.com/cum-cong-nghiep-gia-van-ninh-binh": {
    "match_name": "Gia Viễn, Ninh Bình, Vietnam",
    "confidence": 0.573529,
    "lng": 105.83616,
    "lat": 20.345379,
    "query": "CỤM CÔNG NGHIỆP GIA VÂN - NINH BÌNH, Xã Gia Vân, huyện Gia Viễn, tỉnh Ninh Bình, Vietnam"
  },
  "https://iipmap.com/khu-cong-nghiep-nhuan-trach-hoa-binh": {
    "match_name": "Lương Sơn, Hòa Bình, Vietnam",
    "confidence": 0.564815,
    "lng": 105.515236,
    "lat": 20.870216,
    "query": "KHU CÔNG NGHIỆP NHUẬN TRẠCH - HÒA BÌNH, Thị trấn Lương Sơn, huyện Lương Sơn, tỉnh Hòa Bình, Vietnam"
  },
  "https://iipmap.com/khu-cong-nghiep-ca-na-ninh-thuan": {
    "match_name": "Thuận Nam, Ninh Thuận, Vietnam",
    "confidence": 0.607143,
    "lng": 108.88981,
    "lat": 11.338802,
    "query": "KHU CÔNG NGHIỆP CÀ NÁ - NINH THUẬN, Huyện Thuận Nam, tỉnh Ninh Thuận, Vietnam"
  },
  "https://iipmap.com/khu-cong-nghiep-hoa-tam-giai-doan-1-dak-lak": {
    "match_name": "Lắk, Đắk Lắk, Vietnam",
    "confidence": 0.521242,
    "lng": 108.17372,
    "lat": 12.408505,
    "query": "KHU CÔNG NGHIỆP HÒA TÂM GIAI ĐOẠN 1 - ĐẮK LẮK, Xã Hòa Xuân, tỉnh Đắk Lắk, Vietnam"
  },
  "https://iipmap.com/cum-cong-nghiep-xa-cau-ha-noi": {
    "match_name": "Hanoi, Vietnam",
    "confidence": 0.440546,
    "lng": 105.854444,
    "lat": 21.02945,
    "query": "CỤM CÔNG NGHIỆP XÀ CẦU - HÀ NỘI, xã Quảng Phú Cầu, huyện Ứng Hòa, thành phố Hà Nội, Vietnam"
  },
  "https://iipmap.com/khu-cong-nghiep-loc-an-binh-son-dong-nai": {
    "match_name": "Long Thành, Đồng Nai, Vietnam",
    "confidence": 0.555556,
    "lng": 106.95096,
    "lat": 10.782615,
    "query": "KHU CÔNG NGHIỆP LỘC AN – BÌNH SƠN – ĐỒNG NAI, xã Long Thành, tỉnh Đồng Nai, Vietnam"
  },
  "https://iipmap.com/khu-cong-nghiep-duc-hoa-iii-long-viet-tay-ninh": {
    "match_name": "Tây Ninh, Tây Ninh, Vietnam",
    "confidence": 0.32716,
    "lng": 106.09091,
    "lat": 11.316238,
    "query": "KHU CÔNG NGHIỆP ĐỨC HÒA III - LONG VIỆT - TÂY NINH, xã Mỹ Hạnh Bắc, huyện Đức Hòa, tỉnh"
  },
  "https://iipmap.com/cum-cong-nghiep-phu-cuong-dong-nai": {
    "match_name": "Thống Nhất, Đồng Nai, Vietnam",
    "confidence": 0.575397,
    "lng": 107.14018,
    "lat": 10.942836,
    "query": "CỤM CÔNG NGHIỆP PHÚ CƯỜNG - ĐỒNG NAI, xã Thống Nhất, tỉnh Đồng Nai, Vietnam"
  },
  "https://iipmap.com/cum-cong-nghiep-hong-viet-thai-binh": {
    "match_name": "Thái Bình, Thái Bình, Vietnam",
    "confidence": 0.440546,
    "lng": 106.3435,
    "lat": 20.44802,
    "query": "CỤM CÔNG NGHIỆP HỒNG VIỆT - THÁI BÌNH, xã Thăng Long và xã Minh Tân, huyện Đông Hưng, tỉnh Thái"
  },
  "https://iipmap.com/khu-cong-nghiep-tan-dong-hiep-a-binh-duong": {
    "match_name": "Dĩ An, Bình Dương, Vietnam",
    "confidence": 0.453938,
    "lng": 106.763275,
    "lat": 10.892208,
    "query": "KHU CÔNG NGHIỆP TÂN ĐÔNG HIỆP A - BÌNH DƯƠNG, Tân Bình và Đông Hòa, thị xã Dĩ An, tỉnh"
  },
  "https://iipmap.com/khu-cong-nghiep-long-duc-giai-doan-2-dong-nai": {
    "match_name": "Long Thành, Đồng Nai, Vietnam",
    "confidence": 0.487329,
    "lng": 106.95096,
    "lat": 10.782615,
    "query": "KHU CÔNG NGHIỆP LONG ĐỨC GIAI ĐOẠN 2 - ĐỒNG NAI, xã Long Đức, huyện Long Thành, tỉnh Đồng Nai,"
  },
  "https://iipmap.com/khu-cong-nghiep-ly-thuong-kiet-hung-yen": {
    "match_name": "Yên Mỹ, Hưng Yên, Vietnam",
    "confidence": 0.487329,
    "lng": 106.03264,
    "lat": 20.880495,
    "query": "KHU CÔNG NGHIỆP LÝ THƯỜNG KIỆT - HƯNG YÊN, Huyện Yên Mỹ, Khoái Châu và Ân Thi, tỉnh Hưng Yên,"
  },
  "https://iipmap.com/cum-cong-nghiep-khanh-hai-i-ninh-binh": {
    "match_name": "Ninh Bình, Ninh Bình, Vietnam",
    "confidence": 0.564815,
    "lng": 105.97167,
    "lat": 20.257044,
    "query": "CỤM CÔNG NGHIỆP KHÁNH HẢI I - NINH BÌNH, xã Yên Khánh, tỉnh Ninh Bình, Vietnam"
  },
  "https://iipmap.com/cum-cong-nghiep-tho-minh-thanh-hoa": {
    "match_name": "Thọ Xuân, Thanh Hóa, Vietnam",
    "confidence": 0.573529,
    "lng": 105.520294,
    "lat": 19.932283,
    "query": "CỤM CÔNG NGHIỆP THỌ MINH - THANH HÓA, Xã Thuận Minh, huyện Thọ Xuân, tỉnh Thanh Hóa, Vietnam"
  },
  "https://iipmap.com/khu-cong-nghiep-nam-binh-xuyen-green-park-phu-tho": {
    "match_name": "Phú Thọ, Phú Thọ, Vietnam",
    "confidence": 0.463938,
    "lng": 105.222466,
    "lat": 21.400158,
    "query": "KHU CÔNG NGHIỆP NAM BÌNH XUYÊN GREEN PARK - PHÚ THỌ, xã Bình Nguyên, xã Xuân Lãng, tỉnh Phú Thọ,"
  },
  "https://iipmap.com/cum-cong-nghiep-lac-thien-ha-tinh": {
    "match_name": "Đức Thọ, Hà Tĩnh, Vietnam",
    "confidence": 0.564815,
    "lng": 105.58542,
    "lat": 18.53091,
    "query": "CỤM CÔNG NGHIỆP LẠC THIỆN - HÀ TĨNH, xã Lâm Trung Thủy, huyện Đức Thọ, tỉnh Hà Tĩnh, Vietnam"
  },
  "https://iipmap.com/khu-cong-nghiep-hai-long-thai-binh": {
    "match_name": "Tiền Hải, Thái Bình, Vietnam",
    "confidence": 0.557018,
    "lng": 106.50315,
    "lat": 20.40454,
    "query": "KHU CÔNG NGHIỆP HẢI LONG - THÁI BÌNH, Đông Hải và Đông Xuyên, huyện Tiền Hải, tỉnh Thái Bình, Vietnam"
  },
  "https://iipmap.com/khu-cong-nghiep-hoa-ninh-da-nang": {
    "match_name": "Hoà An, Cao Bằng, Vietnam",
    "confidence": 0.564198,
    "lng": 106.15273,
    "lat": 22.736755,
    "query": "KHU CÔNG NGHIỆP HÒA NINH - ĐÀ NẴNG, Xã Hòa Ninh, huyện Hòa Vang, thành phố Đà Nẵng, Vietnam"
  },
  "https://iipmap.com/khu-cong-nghiep-tam-duong-vinh-phuc": {
    "match_name": "Tam Dương, Vĩnh Phúc, Vietnam",
    "confidence": 0.607143,
    "lng": 105.54094,
    "lat": 21.379745,
    "query": "KHU CÔNG NGHIỆP TAM DƯƠNG - VĨNH PHÚC, Huyện Tam Dương, tỉnh Vĩnh Phúc, Vietnam"
  },
  "https://iipmap.com/cum-cong-nghiep-binh-thanh-gia-lai": {},
  "https://iipmap.com/khu-cong-nghiep-nam-tan-uyen-binh-duong": {
    "match_name": "Tân Sơn, Phú Thọ, Vietnam",
    "confidence": 0.564198,
    "lng": 105.182076,
    "lat": 21.217745,
    "query": "KHU CÔNG NGHIỆP NAM TÂN UYÊN - BÌNH DƯƠNG, phường Khánh Bình, huyện Tân Uyên, tỉnh Bình Dương, Vietnam"
  },
  "https://iipmap.com/khu-cong-nghiep-kim-thanh-hai-phong": {
    "match_name": "Hạ Long, Quảng Ninh, Vietnam",
    "confidence": 0.231969,
    "lng": 107.079765,
    "lat": 20.952133,
    "query": "KHU CÔNG NGHIỆP KIM THÀNH - HẢI PHÒNG, xã Tuấn Hưng và xã Cổ Dũng, huyện Kim Thành, thành phố"
  },
  "https://iipmap.com/khu-cong-nghiep-long-my-gia-lai": {
    "match_name": "Long Mỹ, Hậu Giang, Vietnam",
    "confidence": 0.459259,
    "lng": 105.57193,
    "lat": 9.680142,
    "query": "KHU CÔNG NGHIỆP LONG MỸ - GIA LAI, xã Quy Nhơn Tây, tỉnh Gia Lai, Vietnam"
  },
  "https://iipmap.com/khu-cong-nghiep-duc-hoa-i-hanh-phuc-tay-ninh": {
    "match_name": "Tây Ninh, Tây Ninh, Vietnam",
    "confidence": 0.547386,
    "lng": 106.09091,
    "lat": 11.316238,
    "query": "KHU CÔNG NGHIỆP ĐỨC HÒA I - HẠNH PHÚC - TÂY NINH, xã Mỹ Hạnh, tỉnh Tây Ninh, Vietnam"
  },
  "https://iipmap.com/khu-cong-nghiep-nam-thang-binh-phan-khu-b-quang-nam": {
    "match_name": "Thăng Bình, Quảng Nam, Vietnam",
    "confidence": 0.483827,
    "lng": 108.35465,
    "lat": 15.740202,
    "query": "KHU CÔNG NGHIỆP NAM THĂNG BÌNH - PHÂN KHU B - QUẢNG NAM, Bình Nam, huyện Thăng Bình, tỉnh Quảng"
  },
  "https://iipmap.com/cum-cong-nghiep-ngoc-liep-ha-noi": {
    "match_name": "Hanoi, Vietnam",
    "confidence": 0.459259,
    "lng": 105.854444,
    "lat": 21.02945,
    "query": "CỤM CÔNG NGHIỆP NGỌC LIỆP - HÀ NỘI, xã Tây Phương, thành phố Hà Nội, Vietnam"
  },
  "https://iipmap.com/khu-cong-nghiep-ho-nai-dong-nai": {
    "match_name": "Biên Hòa, Đồng Nai, Vietnam",
    "confidence": 0.580409,
    "lng": 106.81931,
    "lat": 10.9478,
    "query": "KHU CÔNG NGHIỆP HỐ NAI - ĐỒNG NAI, huyện Trảng Bom và thành phố Biên Hòa, tỉnh Đồng Nai, Vietnam"
  },
  "https://iipmap.com/khu-cong-nghiep-song-cong-ii-thai-nguyen": {
    "match_name": "Thái Nguyên, Thái Nguyên, Vietnam",
    "confidence": 0.555556,
    "lng": 105.834206,
    "lat": 21.59228,
    "query": "KHU CÔNG NGHIỆP SÔNG CÔNG II - THÁI NGUYÊN, Thị xã Sông Công, tỉnh Thái Nguyên, Vietnam"
  },
  "https://iipmap.com/cum-cong-nghiep-thai-tan-hai-phong": {
    "match_name": "Nha Trang, Khánh Hòa, Vietnam",
    "confidence": 0.324561,
    "lng": 109.18859,
    "lat": 12.241498,
    "query": "CỤM CÔNG NGHIỆP THÁI TÂN – HẢI PHÒNG, xã Nam Hồng và xã Hồng Phong, huyện Nam Sách, thành phố"
  },
  "https://iipmap.com/cum-cong-nghiep-phia-tay-viet-hoa-hai-phong": {
    "match_name": "Haiphong, Vietnam",
    "confidence": 0.448802,
    "lng": 106.674959,
    "lat": 20.858864,
    "query": "CỤM CÔNG NGHIỆP PHÍA TÂY VIỆT HÒA - HẢI PHÒNG, phường Việt Hòa, thành phố Hải Phòng, Vietnam"
  },
  "https://iipmap.com/khu-cong-nghiep-vam-cong-an-giang": {},
  "https://iipmap.com/khu-cong-nghe-cao-sinh-hoc-ha-noi-ha-noi": {
    "match_name": "Hà Tiên, Kiên Giang, Vietnam",
    "confidence": 0.347953,
    "lng": 104.48751,
    "lat": 10.382317,
    "query": "KHU CÔNG NGHỆ CAO SINH HỌC HÀ NỘI - HÀ NỘI, phường Tây Tựu, phường Thượng Cát, thành phố Hà"
  },
  "https://iipmap.com/khu-cong-nghiep-thanh-binh-binh-phuoc": {
    "match_name": "Đồng Xoài, Bình Phước, Vietnam",
    "confidence": 0.564815,
    "lng": 106.894325,
    "lat": 11.531429,
    "query": "KHU CÔNG NGHIỆP THANH BÌNH - BÌNH PHƯỚC, Thị xã Đồng Xoài, tỉnh Bình Phước, Vietnam"
  },
  "https://iipmap.com/khu-cong-nghiep-nam-dong-phu-dong-nai": {
    "match_name": "Nam Đông, Huế, Vietnam",
    "confidence": 0.459259,
    "lng": 107.719215,
    "lat": 16.171833,
    "query": "KHU CÔNG NGHIỆP NAM ĐỒNG PHÚ - ĐỒNG NAI, xã Đồng Phú, tỉnh Đồng Nai, Vietnam"
  },
  "https://iipmap.com/cum-cong-nghiep-yen-lenh-ninh-binh": {
    "match_name": "Ninh Bình, Ninh Bình, Vietnam",
    "confidence": 0.575397,
    "lng": 105.97167,
    "lat": 20.257044,
    "query": "CỤM CÔNG NGHIỆP YÊN LỆNH – NINH BÌNH, phường Duy Tiên, tỉnh Ninh Bình, Vietnam"
  },
  "https://iipmap.com/khu-cong-nghiep-gia-lach-mo-rong-ha-tinh": {
    "match_name": "Nghi Xuân, Hà Tĩnh, Vietnam",
    "confidence": 0.557018,
    "lng": 105.75631,
    "lat": 18.661116,
    "query": "KHU CÔNG NGHIỆP GIA LÁCH MỞ RỘNG - HÀ TĨNH, xã Xuân Viên, huyện Nghi Xuân, tỉnh Hà Tĩnh, Vietnam"
  },
  "https://iipmap.com/cum-cong-nghiep-dac-loc-khanh-hoa": {
    "match_name": "Nha Trang, Khánh Hòa, Vietnam",
    "confidence": 0.624074,
    "lng": 109.18859,
    "lat": 12.241498,
    "query": "CỤM CÔNG NGHIỆP ĐẮC LỘC - KHÁNH HÒA, Thành phố Nha Trang, tỉnh Khánh Hòa, Vietnam"
  },
  "https://iipmap.com/khu-cong-nghiep-bau-bang-2-ho-chi-minh": {
    "match_name": "Ho Chi Minh City, Vietnam",
    "confidence": 0.498635,
    "lng": 106.701756,
    "lat": 10.775844,
    "query": "KHU CÔNG NGHIỆP BÀU BÀNG 2 - HỒ CHÍ MINH, xã Trừ Văn Thố, thành phố Hồ Chí Minh, Vietnam"
  },